{
  "state": "CA",
  "city": "Long Beach",
  "kitchens": [
    {
      "title": "Feel Good Kitchen LB",
      "price": null,
      "categoryName": "Shared-use commercial kitchen",
      "address": "714 Orange Ave, Long Beach, CA 90813",
      "neighborhood": "Eastside",
      "street": "714 Orange Ave",
      "city": "Long Beach",
      "postalCode": "90813",
      "state": "California",
      "countryCode": "US",
      "website": "https://www.feelgoodkitchenlb.com/",
      "claimThisBusiness": false,
      "location": {
        "lat": 33.7757114,
        "lng": -118.1762067
      },
      "totalScore": 5,
      "permanentlyClosed": false,
      "temporarilyClosed": false,
      "placeId": "ChIJ6d_9Dtkx3YARgTxbBq9XJZE",
      "categories": [
        "Shared-use commercial kitchen",
        "Food processing equipment"
      ],
      "fid": "0x80dd31d90efddfe9:0x912557af065b3c81",
      "cid": "10458862118875380865",
      "reviewsCount": 42,
      "imagesCount": 24,
      "imageCategories": [],
      "scrapedAt": "2025-07-16T13:38:27.565Z",
      "googleFoodUrl": null,
      "hotelAds": [],
      "openingHours": [
        {
          "day": "Monday",
          "hours": "Open 24 hours"
        },
        {
          "day": "Tuesday",
          "hours": "Open 24 hours"
        },
        {
          "day": "Wednesday",
          "hours": "Open 24 hours"
        },
        {
          "day": "Thursday",
          "hours": "Open 24 hours"
        },
        {
          "day": "Friday",
          "hours": "Open 24 hours"
        },
        {
          "day": "Saturday",
          "hours": "Open 24 hours"
        },
        {
          "day": "Sunday",
          "hours": "Open 24 hours"
        }
      ],
      "peopleAlsoSearch": [],
      "placesTags": [],
      "reviewsTags": [],
      "additionalInfo": {
        "From the business": [
          {
            "Identifies as women-owned": true
          }
        ],
        "Service options": [
          {
            "Delivery": true
          }
        ],
        "Accessibility": [
          {
            "Wheelchair accessible entrance": true
          },
          {
            "Wheelchair accessible parking lot": true
          },
          {
            "Wheelchair accessible restroom": true
          }
        ]
      },
      "gasPrices": [],
      "url": "https://www.google.com/maps/search/?api=1&query=Feel%20Good%20Kitchen%20LB&query_place_id=ChIJ6d_9Dtkx3YARgTxbBq9XJZE",
      "searchPageUrl": "https://www.google.com/maps/search/shared-use%20commercial%20kitchen/@33.75412972183,-118.24938961672642,14z?hl=en",
      "searchString": "shared-use commercial kitchen",
      "language": "en",
      "rank": 1,
      "isAdvertisement": false,
      "imageUrl": "https://lh3.googleusercontent.com/p/AF1QipOsqY-KGx3RC76V_JONg_ei2X-xopzpDIzjMhp-=w408-h306-k-no",
      "kgmid": "/g/11h53ms0vc"
    },
    {
      "title": "Partake Collective Food Hall and Commercial Kitchens",
      "price": null,
      "categoryName": "Shared-use commercial kitchen",
      "address": "456 Elm Ave k9, Long Beach, CA 90802",
      "neighborhood": "Downtown",
      "street": "456 Elm Ave k9",
      "city": "Long Beach",
      "postalCode": "90802",
      "state": "California",
      "countryCode": "US",
      "website": "https://www.partakecollective.com/",
      "phone": "(562) 317-1577",
      "phoneUnformatted": "+15623171577",
      "claimThisBusiness": false,
      "location": {
        "lat": 33.7727542,
        "lng": -118.1872822
      },
      "totalScore": 4.5,
      "permanentlyClosed": false,
      "temporarilyClosed": false,
      "placeId": "ChIJtWCdxVAx3YARwYDH1IEyQw8",
      "categories": [
        "Shared-use commercial kitchen",
        "Food court",
        "Restaurant"
      ],
      "fid": "0x80dd3150c59d60b5:0xf433281d4c780c1",
      "cid": "1099778267210547393",
      "reviewsCount": 38,
      "imagesCount": 78,
      "imageCategories": [],
      "scrapedAt": "2025-07-16T13:38:27.566Z",
      "googleFoodUrl": null,
      "hotelAds": [],
      "openingHours": [
        {
          "day": "Monday",
          "hours": "11 AM to 10 PM"
        },
        {
          "day": "Tuesday",
          "hours": "11 AM to 10 PM"
        },
        {
          "day": "Wednesday",
          "hours": "11 AM to 10 PM"
        },
        {
          "day": "Thursday",
          "hours": "11 AM to 10 PM"
        },
        {
          "day": "Friday",
          "hours": "11 AM to 10:30 PM"
        },
        {
          "day": "Saturday",
          "hours": "12 to 10:30 PM"
        },
        {
          "day": "Sunday",
          "hours": "12 to 10:30 PM"
        }
      ],
      "additionalOpeningHours": {
        "Delivery": [
          {
            "day": "Monday",
            "hours": "11 AM–10 PM"
          },
          {
            "day": "Tuesday",
            "hours": "11 AM–10 PM"
          },
          {
            "day": "Wednesday",
            "hours": "11 AM–10 PM"
          },
          {
            "day": "Thursday",
            "hours": "11 AM–10 PM"
          },
          {
            "day": "Friday",
            "hours": "11 AM–10:30 PM"
          },
          {
            "day": "Saturday",
            "hours": "12–10:30 PM"
          },
          {
            "day": "Sunday",
            "hours": "12–10:30 PM"
          }
        ],
        "Takeout": [
          {
            "day": "Monday",
            "hours": "11 AM–10 PM"
          },
          {
            "day": "Tuesday",
            "hours": "11 AM–10 PM"
          },
          {
            "day": "Wednesday",
            "hours": "11 AM–10 PM"
          },
          {
            "day": "Thursday",
            "hours": "11 AM–10 PM"
          },
          {
            "day": "Friday",
            "hours": "11 AM–10:30 PM"
          },
          {
            "day": "Saturday",
            "hours": "12–10:30 PM"
          },
          {
            "day": "Sunday",
            "hours": "12–10:30 PM"
          }
        ],
        "Pickup": [
          {
            "day": "Monday",
            "hours": "11 AM–10 PM"
          },
          {
            "day": "Tuesday",
            "hours": "11 AM–10 PM"
          },
          {
            "day": "Wednesday",
            "hours": "11 AM–10 PM"
          },
          {
            "day": "Thursday",
            "hours": "11 AM–10 PM"
          },
          {
            "day": "Friday",
            "hours": "12–10:30 PM"
          },
          {
            "day": "Saturday",
            "hours": "12–10:30 PM"
          },
          {
            "day": "Sunday",
            "hours": "12–10:30 PM"
          }
        ],
        "Kitchen": [
          {
            "day": "Monday",
            "hours": "11 AM–10 PM"
          },
          {
            "day": "Tuesday",
            "hours": "11 AM–10 PM"
          },
          {
            "day": "Wednesday",
            "hours": "11 AM–10 PM"
          },
          {
            "day": "Thursday",
            "hours": "11 AM–10 PM"
          },
          {
            "day": "Friday",
            "hours": "11 AM–10:30 PM"
          },
          {
            "day": "Saturday",
            "hours": "12–10:30 PM"
          },
          {
            "day": "Sunday",
            "hours": "12–10:30 PM"
          }
        ],
        "Lunch": [
          {
            "day": "Monday",
            "hours": "11 AM–10 PM"
          },
          {
            "day": "Tuesday",
            "hours": "10 AM–10 PM"
          },
          {
            "day": "Wednesday",
            "hours": "10 AM–10 PM"
          },
          {
            "day": "Thursday",
            "hours": "11 AM–10 PM"
          },
          {
            "day": "Friday",
            "hours": "11 AM–10:30 PM"
          },
          {
            "day": "Saturday",
            "hours": "12–10:30 PM"
          },
          {
            "day": "Sunday",
            "hours": "12–10:30 PM"
          }
        ],
        "Dinner": [
          {
            "day": "Monday",
            "hours": "11 AM–10 PM"
          },
          {
            "day": "Tuesday",
            "hours": "11 AM–10 PM"
          },
          {
            "day": "Wednesday",
            "hours": "11 AM–10 PM"
          },
          {
            "day": "Thursday",
            "hours": "11 AM–10 PM"
          },
          {
            "day": "Friday",
            "hours": "11 AM–10:30 PM"
          },
          {
            "day": "Saturday",
            "hours": "12–10:30 PM"
          },
          {
            "day": "Sunday",
            "hours": "12–10:30 PM"
          }
        ]
      },
      "peopleAlsoSearch": [],
      "placesTags": [],
      "reviewsTags": [],
      "additionalInfo": {
        "Service options": [
          {
            "Delivery": true
          }
        ],
        "Accessibility": [
          {
            "Wheelchair accessible entrance": true
          },
          {
            "Wheelchair accessible parking lot": true
          },
          {
            "Wheelchair accessible restroom": true
          },
          {
            "Wheelchair accessible seating": true
          }
        ],
        "Crowd": [
          {
            "LGBTQ+ friendly": true
          },
          {
            "Transgender safespace": true
          }
        ],
        "Payments": [
          {
            "Credit cards": true
          },
          {
            "Debit cards": true
          },
          {
            "NFC mobile payments": true
          },
          {
            "Credit cards": true
          }
        ]
      },
      "gasPrices": [],
      "url": "https://www.google.com/maps/search/?api=1&query=Partake%20Collective%20Food%20Hall%20and%20Commercial%20Kitchens&query_place_id=ChIJtWCdxVAx3YARwYDH1IEyQw8",
      "searchPageUrl": "https://www.google.com/maps/search/shared-use%20commercial%20kitchen/@33.75412972183,-118.24938961672642,14z?hl=en",
      "searchString": "shared-use commercial kitchen",
      "language": "en",
      "rank": 2,
      "isAdvertisement": false,
      "imageUrl": "https://lh3.googleusercontent.com/p/AF1QipOJtYn4IKDkamuT7XGimbOYbQPLGiXJ-Wc4MjM7=w408-h272-k-no",
      "kgmid": "/g/11sh4ydkj1"
    },
    {
      "title": "LBC Food Co",
      "price": null,
      "categoryName": "Shared-use commercial kitchen",
      "address": "1388 Daisy Ave, Long Beach, CA 90813",
      "neighborhood": "Washington",
      "street": "1388 Daisy Ave",
      "city": "Long Beach",
      "postalCode": "90813",
      "state": "California",
      "countryCode": "US",
      "website": "http://daisydinerlongbeach.com/",
      "claimThisBusiness": true,
      "location": {
        "lat": 33.7837592,
        "lng": -118.1991964
      },
      "totalScore": 4.3,
      "permanentlyClosed": false,
      "temporarilyClosed": false,
      "placeId": "ChIJ1wxHyZMx3YARUpgjHLyUGTA",
      "categories": [
        "Shared-use commercial kitchen"
      ],
      "fid": "0x80dd3193c9470cd7:0x301994bc1c239852",
      "cid": "3465964923885164626",
      "reviewsCount": 4,
      "imagesCount": 49,
      "imageCategories": [],
      "scrapedAt": "2025-07-16T13:38:33.084Z",
      "googleFoodUrl": null,
      "hotelAds": [],
      "openingHours": [
        {
          "day": "Monday",
          "hours": "8 AM to 4:30 PM"
        },
        {
          "day": "Tuesday",
          "hours": "8 AM to 4:30 PM"
        },
        {
          "day": "Wednesday",
          "hours": "8 AM to 4:30 PM"
        },
        {
          "day": "Thursday",
          "hours": "8 AM to 4:30 PM"
        },
        {
          "day": "Friday",
          "hours": "8 AM to 4:30 PM"
        },
        {
          "day": "Saturday",
          "hours": "Closed"
        },
        {
          "day": "Sunday",
          "hours": "Closed"
        }
      ],
      "peopleAlsoSearch": [],
      "placesTags": [],
      "reviewsTags": [],
      "additionalInfo": {
        "Service options": [
          {
            "Delivery": true
          }
        ],
        "Accessibility": [
          {
            "Wheelchair accessible entrance": true
          },
          {
            "Wheelchair accessible parking lot": true
          }
        ]
      },
      "gasPrices": [],
      "url": "https://www.google.com/maps/search/?api=1&query=LBC%20Food%20Co&query_place_id=ChIJ1wxHyZMx3YARUpgjHLyUGTA",
      "searchPageUrl": "https://www.google.com/maps/search/shared-use%20commercial%20kitchen/@33.7757114,-118.1762067,14.73600577051181z?hl=en",
      "searchString": "shared-use commercial kitchen",
      "language": "en",
      "rank": 17,
      "isAdvertisement": false,
      "imageUrl": "http://t1.gstatic.com/images?q=tbn:ANd9GcTD12djfrKnToSICE5RB70fatj7bmAMyKp7s8HwgWrkwktnlEdz",
      "kgmid": "/g/11rcsm7tg7"
    }
  ],
  "insights": {
    "residents": {
      "count": "466.7K",
      "description": "Long Beach's diverse population creates exceptional opportunities for food entrepreneurs serving multicultural communities and busy families.\nThis demographic diversity reflects modern America's changing food preferences, with residents increasingly seeking authentic cuisines and convenient meal solutions.\nResearch shows that 60% of Long Beach consumers order takeout or delivery at least once a week, driven by busy lifestyles and dual-income households.\nThe city's residential patterns create distinct neighborhoods where food delivery thrives, especially during evening hours when families need convenient dinner solutions.\nYoung professionals and established families both value high-quality, convenient meal options that save time while providing variety and authentic flavors.\nHome ownership rates indicate stable communities with established dining habits and disposable income for food services.\nThe growing preference for delivery over dining out, particularly among suburban families, creates consistent demand for ghost kitchen and meal delivery concepts.",
      "driveTime": "15 min",
      "homeowners": "45%",
      "medianHomeValue": "$185K",
      "diversity": "50+",
      "hispanicPopulation": "25%"
    },
    "workforce": {
      "count": "300K",
      "description": "Long Beach's dynamic workforce drives significant demand for convenient, high-quality meal options during busy workdays and corporate meetings.\nThe concentration of professional services, healthcare, and business operations creates a large population of time-conscious workers who value meal delivery services.\nAverage commute times and office-based work schedules create predictable lunch and dinner rush periods that food businesses can optimize around.\nThe rise of remote and hybrid work arrangements has expanded delivery opportunities to residential areas during traditional business hours.\nCorporate culture increasingly includes food benefits and catered meetings, providing opportunities for bulk catering and corporate accounts.\nBusiness lunch meetings remain important for relationship building, creating demand for professional-quality group meal orders and presentation-ready packaging.\nHigher-income professionals represent a premium market segment willing to pay for convenience, quality ingredients, and unique culinary experiences.",
      "driveTime": "15 min",
      "workFromHome": "12%",
      "averageCommute": "25 min",
      "highIncome": "22%",
      "businessLunch": "65%"
    },
    "students": {
      "count": "140K",
      "description": "Long Beach's educated population and student community drive innovation in food trends and represent early adopters of new delivery platforms and concepts.\nCollege students and recent graduates combine adventurous food preferences with strong digital engagement habits and regular delivery app usage.\nLocal colleges and universities creates a constant influx of young adults who view food delivery as an essential part of their lifestyle rather than a luxury service.\nStudents and young professionals often work irregular hours, creating demand for late-night delivery options and weekend meal services.\nThis educated demographic actively seeks out diverse cuisines, sustainable food options, and restaurants that align with their values and social media presence.\nGraduate students, medical residents, and young professionals have limited cooking time but sufficient income to prioritize convenient, nutritious meal options.\nThe concentration of educated consumers makes Long Beach an ideal testing ground for innovative food concepts before expanding to other markets.",
      "driveTime": "15 min",
      "bachelors": "84K",
      "advanced": "56K",
      "foodDelivery": "35%",
      "avgSpend": "$25"
    },
    "income": {
      "median": "$67.9K",
      "description": "Long Beach's income diversity creates opportunities for food businesses to serve multiple market segments through strategic pricing and menu offerings.\nThe substantial middle-income population balances budget consciousness with willingness to pay for convenience during busy periods and special occasions.\nHigher-income households demonstrate different ordering behaviors, ordering delivery more frequently and spending more per order than average consumers.\nIncome distribution patterns reveal distinct market segments that can be served with different brands, pricing strategies, or menu offerings from the same commercial kitchen.\nProfessional services and established industries create seasonal income fluctuations that smart food entrepreneurs can capitalize on with targeted offerings.\nThe city's cost of living relative to income means residents have discretionary spending power for dining and delivery services.\nEconomic stability and employment growth in key industries support sustained demand for food services and premium dining experiences.",
      "under50k": "38%",
      "over100k": "28%",
      "deliveryFrequency": "2.1x",
      "avgOrderValue": "$38"
    },
    "foodScene": {
      "title": "Long Beach's Growing Food Scene",
      "description": "Long Beach boasts a vibrant and evolving culinary landscape that reflects both local traditions and innovative dining trends.\nThe city's food scene combines established favorites with emerging concepts, creating opportunities for entrepreneurs to both honor local preferences and introduce new ideas.\nFrom food trucks to fine dining establishments, Long Beach offers diverse dining experiences that demonstrate consumer openness to culinary innovation.\nLocal food festivals, farmers markets, and culinary events showcase the community's appreciation for quality ingredients and creative preparation.\nThe city's food critics and social media influencers actively champion new restaurants and concepts, providing valuable marketing opportunities for new businesses.\nEstablished food culture creates a knowledgeable customer base that appreciates quality while remaining open to new flavors and concepts.\nThe growing food scene attracts food tourists and creates buzz that benefits all local food businesses through increased visibility and foot traffic."
    },
    "businessOpportunity": {
      "title": "Why Start a Food Business in Long Beach",
      "description": "Long Beach presents excellent opportunities for food entrepreneurs due to its diverse population, stable economy, and strong demand for convenient dining options.\nCalifornia's business-friendly environment includes favorable tax policies, streamlined permitting processes, and supportive small business resources.\nThe $15.2B California food service market continues expanding at 18% annually, driven by population growth and changing consumer preferences.\nCommercial kitchen rental costs in Long Beach remain competitive compared to major metropolitan areas, allowing entrepreneurs to test concepts with manageable overhead.\nThe city's established delivery infrastructure and tech-savvy population create ideal conditions for ghost kitchen and food delivery concepts.\nAccess to diverse suppliers, skilled culinary professionals, and multicultural ingredients supports authentic cuisine development and menu innovation.\nSuccessful food concepts in Long Beach can easily expand regionally or serve as testing grounds for national restaurant chains and food brands.",
      "foodServiceMarket": "$15.2B",
      "deliveryGrowth": "18%",
      "ghostKitchenROI": "32%",
      "startupCost": "$45K"
    }
  }
}