{
  "state": "IL",
  "city": "Chicago",
  "kitchens": [
    {
      "title": "MyKitchens LLC",
      "price": null,
      "categoryName": "Shared-use commercial kitchen",
      "address": "9416 W Irving Park Rd, Schiller Park, IL 60176, United States",
      "neighborhood": null,
      "street": "9416 W Irving Park Rd",
      "city": "Schiller Park",
      "postalCode": "60176",
      "state": "Illinois",
      "countryCode": "US",
      "website": "http://mykitchensllc.com/",
      "phone": "+1 708-714-7151",
      "phoneUnformatted": "+17087147151",
      "claimThisBusiness": false,
      "location": {
        "lat": 41.954568,
        "lng": -87.862074
      },
      "totalScore": 4.2,
      "permanentlyClosed": false,
      "temporarilyClosed": false,
      "placeId": "ChIJkbbEK4y1D4gRQtOC1BYNODc",
      "categories": ["Shared-use commercial kitchen"],
      "fid": "0x880fb58c2bc4b691:0x37380d16d482d342",
      "cid": "3978944662487618370",
      "reviewsCount": 23,
      "imagesCount": 49,
      "imageCategories": [],
      "scrapedAt": "2025-07-17T00:10:32.184Z",
      "googleFoodUrl": null,
      "hotelAds": [],
      "openingHours": [
        {
          "day": "Monday",
          "hours": "Open 24 hours"
        },
        {
          "day": "Tuesday",
          "hours": "Open 24 hours"
        },
        {
          "day": "Wednesday",
          "hours": "Open 24 hours"
        },
        {
          "day": "Thursday",
          "hours": "Open 24 hours"
        },
        {
          "day": "Friday",
          "hours": "Open 24 hours"
        },
        {
          "day": "Saturday",
          "hours": "Open 24 hours"
        },
        {
          "day": "Sunday",
          "hours": "Open 24 hours"
        }
      ],
      "peopleAlsoSearch": [],
      "placesTags": [],
      "reviewsTags": [],
      "additionalInfo": {
        "Accessibility": [
          {
            "Wheelchair-accessible car park": true
          },
          {
            "Wheelchair-accessible entrance": true
          }
        ]
      },
      "gasPrices": [],
      "url": "https://www.google.com/maps/search/?api=1&query=MyKitchens%20LLC&query_place_id=ChIJkbbEK4y1D4gRQtOC1BYNODc",
      "searchPageUrl": "https://www.google.com/maps/search/shared-use%20commercial%20kitchen/@41.360803795483946,-90.28142009787805,10z?hl=en",
      "searchString": "shared-use commercial kitchen",
      "language": "en",
      "rank": 1,
      "isAdvertisement": false,
      "imageUrl": "https://lh3.googleusercontent.com/gps-cs-s/AC9h4no6ir8-VJIcxuxP2PjEDL1C5eKUNOWshghxSLTKrZapV2Ya8uRZxSiXAbbZ4O1IgsJR8emqA3TULtEUqZRoYRYcRuuHoD-Tuqqq6r_7ndE2fEsEkCg9mF6UIQJNx3MBaHG6LWsycA=w408-h544-k-no",
      "kgmid": "/g/11bwyt_9wj"
    },
    {
      "title": "Kitchen Chicago",
      "price": null,
      "categoryName": "Shared-use commercial kitchen",
      "address": "324 N Leavitt St Suite 100, Chicago, IL 60612, United States",
      "neighborhood": "Near West Side",
      "street": "324 N Leavitt St Suite 100",
      "city": "Chicago",
      "postalCode": "60612",
      "state": "Illinois",
      "countryCode": "US",
      "website": "http://kitchenchicago.com/",
      "phone": "+1 312-455-0863",
      "phoneUnformatted": "+13124550863",
      "claimThisBusiness": false,
      "location": {
        "lat": 41.8877327,
        "lng": -87.6822906
      },
      "totalScore": 4.5,
      "permanentlyClosed": false,
      "temporarilyClosed": false,
      "placeId": "ChIJsWIrwUgtDogR1SQy0Zy0B08",
      "categories": ["Shared-use commercial kitchen", "Event venue"],
      "fid": "0x880e2d48c12b62b1:0x4f07b49cd13224d5",
      "cid": "5694718839450903765",
      "reviewsCount": 47,
      "imagesCount": 32,
      "imageCategories": [],
      "scrapedAt": "2025-07-17T00:10:32.185Z",
      "googleFoodUrl": null,
      "hotelAds": [],
      "openingHours": [
        {
          "day": "Monday",
          "hours": "Open 24 hours"
        },
        {
          "day": "Tuesday",
          "hours": "Open 24 hours"
        },
        {
          "day": "Wednesday",
          "hours": "Open 24 hours"
        },
        {
          "day": "Thursday",
          "hours": "Open 24 hours"
        },
        {
          "day": "Friday",
          "hours": "Open 24 hours"
        },
        {
          "day": "Saturday",
          "hours": "Open 24 hours"
        },
        {
          "day": "Sunday",
          "hours": "Open 24 hours"
        }
      ],
      "peopleAlsoSearch": [],
      "placesTags": [],
      "reviewsTags": [],
      "additionalInfo": {
        "Service options": [
          {
            "Delivery": true
          }
        ],
        "Accessibility": [
          {
            "Wheelchair-accessible car park": true
          },
          {
            "Wheelchair-accessible entrance": true
          }
        ],
        "Payments": [
          {
            "Credit cards": true
          }
        ]
      },
      "gasPrices": [],
      "url": "https://www.google.com/maps/search/?api=1&query=Kitchen%20Chicago&query_place_id=ChIJsWIrwUgtDogR1SQy0Zy0B08",
      "searchPageUrl": "https://www.google.com/maps/search/shared-use%20commercial%20kitchen/@41.360803795483946,-90.28142009787805,10z?hl=en",
      "searchString": "shared-use commercial kitchen",
      "language": "en",
      "rank": 2,
      "isAdvertisement": false,
      "imageUrl": "https://lh3.googleusercontent.com/gps-cs-s/AC9h4nq8yYL9g0OBnTwqAtbMpWm3uYLaa5DZGu5wkyA2L7X4UbyI-am7kvr1KNPKkQlWf7Kc5TbJgwqFrHKFlAuCULOcEsrJ9-NG84AAZnfivPAD-4n_F0HTsmciGUoDqq_gB8Zop1eN=w408-h306-k-no",
      "kgmid": "/g/1v6p9fdr"
    },
    {
      "title": "Nimbus River North",
      "price": null,
      "categoryName": "Shared-use commercial kitchen",
      "address": "820 N Orleans St, Chicago, IL 60610, United States",
      "neighborhood": "Near North Side",
      "street": "820 N Orleans St",
      "city": "Chicago",
      "postalCode": "60610",
      "state": "Illinois",
      "countryCode": "US",
      "website": "https://nimbuskitchen.com/",
      "phone": "+1 646-718-3475",
      "phoneUnformatted": "+16467183475",
      "claimThisBusiness": false,
      "location": {
        "lat": 41.8972264,
        "lng": -87.6382978
      },
      "totalScore": 5,
      "permanentlyClosed": false,
      "temporarilyClosed": false,
      "placeId": "ChIJJ3HI54DTD4gRRw5Oe_VI3yo",
      "categories": ["Shared-use commercial kitchen"],
      "fid": "0x880fd380e7c87127:0x2adf48f57b4e0e47",
      "cid": "3089268088572350023",
      "reviewsCount": 14,
      "imagesCount": 17,
      "imageCategories": [],
      "scrapedAt": "2025-07-17T00:10:32.186Z",
      "googleFoodUrl": null,
      "hotelAds": [],
      "openingHours": [
        {
          "day": "Monday",
          "hours": "6 AM to 10 PM"
        },
        {
          "day": "Tuesday",
          "hours": "6 AM to 10 PM"
        },
        {
          "day": "Wednesday",
          "hours": "6 AM to 10 PM"
        },
        {
          "day": "Thursday",
          "hours": "6 AM to 10 PM"
        },
        {
          "day": "Friday",
          "hours": "6 AM to 10 PM"
        },
        {
          "day": "Saturday",
          "hours": "6 AM to 10 PM"
        },
        {
          "day": "Sunday",
          "hours": "6 AM to 10 PM"
        }
      ],
      "peopleAlsoSearch": [],
      "placesTags": [],
      "reviewsTags": [],
      "additionalInfo": {
        "Accessibility": [
          {
            "Wheelchair-accessible entrance": true
          }
        ],
        "Payments": [
          {
            "Credit cards": true
          }
        ],
        "Parking": [
          {
            "Free of charge street parking": true
          },
          {
            "On-site parking": true
          },
          {
            "Paid parking lot": true
          },
          {
            "Paid street parking": true
          }
        ]
      },
      "gasPrices": [],
      "url": "https://www.google.com/maps/search/?api=1&query=Nimbus%20River%20North&query_place_id=ChIJJ3HI54DTD4gRRw5Oe_VI3yo",
      "searchPageUrl": "https://www.google.com/maps/search/shared-use%20commercial%20kitchen/@41.360803795483946,-90.28142009787805,10z?hl=en",
      "searchString": "shared-use commercial kitchen",
      "language": "en",
      "rank": 3,
      "isAdvertisement": false,
      "imageUrl": "https://lh3.googleusercontent.com/p/AF1QipOsvLBQTy5lzKIkZ3e7r5tB0MhyQ6Dr6BHIekwP=w408-h271-k-no",
      "kgmid": "/g/11y34cr4qf"
    },
    {
      "title": "Scratch Incubator Kitchen",
      "price": null,
      "categoryName": "Shared-use commercial kitchen",
      "address": "101 N Johnson St, Woodstock, IL 60098, United States",
      "neighborhood": null,
      "street": "101 N Johnson St",
      "city": "Woodstock",
      "postalCode": "60098",
      "state": "Illinois",
      "countryCode": "US",
      "website": "https://www.eventsatethereal.com/scratch-kitchen",
      "phone": "+1 815-414-9970",
      "phoneUnformatted": "+18154149970",
      "claimThisBusiness": true,
      "location": {
        "lat": 42.314911,
        "lng": -88.4483756
      },
      "totalScore": 5,
      "permanentlyClosed": false,
      "temporarilyClosed": false,
      "placeId": "ChIJC8jMIN9pD4gR_RWJKOGKhSg",
      "categories": ["Shared-use commercial kitchen"],
      "fid": "0x880f69df20ccc80b:0x28858ae1288915fd",
      "cid": "2919892633071982077",
      "reviewsCount": 1,
      "imagesCount": 1,
      "imageCategories": [],
      "scrapedAt": "2025-07-17T00:10:32.186Z",
      "googleFoodUrl": null,
      "hotelAds": [],
      "openingHours": [
        {
          "day": "Monday",
          "hours": "Open 24 hours"
        },
        {
          "day": "Tuesday",
          "hours": "Open 24 hours"
        },
        {
          "day": "Wednesday",
          "hours": "Open 24 hours"
        },
        {
          "day": "Thursday",
          "hours": "Open 24 hours"
        },
        {
          "day": "Friday",
          "hours": "Open 24 hours"
        },
        {
          "day": "Saturday",
          "hours": "Open 24 hours"
        },
        {
          "day": "Sunday",
          "hours": "Open 24 hours"
        }
      ],
      "peopleAlsoSearch": [],
      "placesTags": [],
      "reviewsTags": [],
      "additionalInfo": {
        "Accessibility": [
          {
            "Wheelchair-accessible car park": true
          },
          {
            "Wheelchair-accessible entrance": true
          }
        ]
      },
      "gasPrices": [],
      "url": "https://www.google.com/maps/search/?api=1&query=Scratch%20Incubator%20Kitchen-%20Rentable%20Commercial%20Kitchen&query_place_id=ChIJC8jMIN9pD4gR_RWJKOGKhSg",
      "searchPageUrl": "https://www.google.com/maps/search/shared-use%20commercial%20kitchen/@41.360803795483946,-90.28142009787805,10z?hl=en",
      "searchString": "shared-use commercial kitchen",
      "language": "en",
      "rank": 4,
      "isAdvertisement": false,
      "imageUrl": "https://streetviewpixels-pa.googleapis.com/v1/thumbnail?panoid=_ZfokRHESGWV7QhbygbAHA&cb_client=search.gws-prod.gps&w=408&h=240&yaw=15.684082&pitch=0&thumbfov=100",
      "kgmid": "/g/11v0vxvg3g"
    },
    {
      "title": "Amped Kitchens Chicago",
      "price": null,
      "categoryName": "Shared-use commercial kitchen",
      "address": "5801 W Dickens Ave, Chicago, IL 60639, United States",
      "neighborhood": "Belmont Central",
      "street": "5801 W Dickens Ave",
      "city": "Chicago",
      "postalCode": "60639",
      "state": "Illinois",
      "countryCode": "US",
      "website": "https://www.ampedkitchens.com/chicago?utm_source=google&utm_medium=organic&utm_campaign=gmb_website",
      "phone": "+1 872-240-8731",
      "phoneUnformatted": "+18722408731",
      "claimThisBusiness": false,
      "location": {
        "lat": 41.9178417,
        "lng": -87.771298
      },
      "totalScore": 4.6,
      "permanentlyClosed": false,
      "temporarilyClosed": false,
      "placeId": "ChIJx241UNHND4gR5GidkJd5ui0",
      "categories": [
        "Shared-use commercial kitchen",
        "Food manufacturing supply"
      ],
      "fid": "0x880fcdd150356ec7:0x2dba7997909d68e4",
      "cid": "3295079769248196836",
      "reviewsCount": 16,
      "imagesCount": 5,
      "imageCategories": [],
      "scrapedAt": "2025-07-17T00:10:32.186Z",
      "googleFoodUrl": null,
      "hotelAds": [],
      "openingHours": [
        {
          "day": "Monday",
          "hours": "Open 24 hours"
        },
        {
          "day": "Tuesday",
          "hours": "Open 24 hours"
        },
        {
          "day": "Wednesday",
          "hours": "Open 24 hours"
        },
        {
          "day": "Thursday",
          "hours": "Open 24 hours"
        },
        {
          "day": "Friday",
          "hours": "Open 24 hours"
        },
        {
          "day": "Saturday",
          "hours": "Open 24 hours"
        },
        {
          "day": "Sunday",
          "hours": "Open 24 hours"
        }
      ],
      "peopleAlsoSearch": [],
      "placesTags": [],
      "reviewsTags": [],
      "additionalInfo": {
        "Service options": [
          {
            "On-site services": true
          }
        ],
        "Accessibility": [
          {
            "Wheelchair-accessible car park": true
          },
          {
            "Wheelchair-accessible entrance": true
          }
        ],
        "Payments": [
          {
            "Credit cards": true
          }
        ],
        "Parking": [
          {
            "Free of charge street parking": true
          },
          {
            "Paid parking lot": true
          }
        ]
      },
      "gasPrices": [],
      "url": "https://www.google.com/maps/search/?api=1&query=Amped%20Kitchens%20Chicago&query_place_id=ChIJx241UNHND4gR5GidkJd5ui0",
      "searchPageUrl": "https://www.google.com/maps/search/shared-use%20commercial%20kitchen/@41.360803795483946,-90.28142009787805,10z?hl=en",
      "searchString": "shared-use commercial kitchen",
      "language": "en",
      "rank": 5,
      "isAdvertisement": false,
      "imageUrl": "https://lh3.googleusercontent.com/p/AF1QipMCOA-TAJ4jYXmZtQevBuUDqeI3K5--KppeptiW=w408-h272-k-no",
      "kgmid": "/g/11j3332h9t"
    },
    {
      "title": "R City Kitchen",
      "price": null,
      "categoryName": "Shared-use commercial kitchen",
      "address": "841 W 103rd St, Chicago, IL 60643, United States",
      "neighborhood": "South Side",
      "street": "841 W 103rd St",
      "city": "Chicago",
      "postalCode": "60643",
      "state": "Illinois",
      "countryCode": "US",
      "website": "https://www.rcitykitchen.com/",
      "phone": "+1 872-228-7373",
      "phoneUnformatted": "+18722287373",
      "claimThisBusiness": false,
      "location": {
        "lat": 41.7066883,
        "lng": -87.6444222
      },
      "totalScore": 4.9,
      "permanentlyClosed": false,
      "temporarilyClosed": false,
      "placeId": "ChIJATY5uf4lDogRJLdK6IQbGqk",
      "categories": ["Shared-use commercial kitchen"],
      "fid": "0x880e25feb9393601:0xa91a1b84e84ab724",
      "cid": "12185081999451141924",
      "reviewsCount": 17,
      "imagesCount": 35,
      "imageCategories": [],
      "scrapedAt": "2025-07-17T00:10:32.186Z",
      "googleFoodUrl": null,
      "hotelAds": [],
      "openingHours": [
        {
          "day": "Monday",
          "hours": "9 AM to 5 PM"
        },
        {
          "day": "Tuesday",
          "hours": "9 AM to 5 PM"
        },
        {
          "day": "Wednesday",
          "hours": "9 AM to 5 PM"
        },
        {
          "day": "Thursday",
          "hours": "9 AM to 5 PM"
        },
        {
          "day": "Friday",
          "hours": "9 AM to 5 PM"
        },
        {
          "day": "Saturday",
          "hours": "Closed"
        },
        {
          "day": "Sunday",
          "hours": "Closed"
        }
      ],
      "additionalOpeningHours": {
        "Access": [
          {
            "day": "Monday",
            "hours": "Open 24 hours"
          },
          {
            "day": "Tuesday",
            "hours": "Open 24 hours"
          },
          {
            "day": "Wednesday",
            "hours": "Open 24 hours"
          },
          {
            "day": "Thursday",
            "hours": "Open 24 hours"
          },
          {
            "day": "Friday",
            "hours": "Open 24 hours"
          },
          {
            "day": "Saturday",
            "hours": "Open 24 hours"
          },
          {
            "day": "Sunday",
            "hours": "Open 24 hours"
          }
        ]
      },
      "peopleAlsoSearch": [],
      "placesTags": [],
      "reviewsTags": [],
      "additionalInfo": {
        "From the business": [
          {
            "Identifies as Black-owned": true
          }
        ],
        "Accessibility": [
          {
            "Wheelchair-accessible entrance": true
          }
        ],
        "Payments": [
          {
            "Credit cards": true
          }
        ]
      },
      "gasPrices": [],
      "url": "https://www.google.com/maps/search/?api=1&query=R%20City%20Kitchen&query_place_id=ChIJATY5uf4lDogRJLdK6IQbGqk",
      "searchPageUrl": "https://www.google.com/maps/search/shared-use%20commercial%20kitchen/@41.360803795483946,-90.28142009787805,10z?hl=en",
      "searchString": "shared-use commercial kitchen",
      "language": "en",
      "rank": 7,
      "isAdvertisement": false,
      "imageUrl": "https://lh3.googleusercontent.com/p/AF1QipOEaK5C6r8peS_XbNq92jEZbhsIroB16WwG4gbn=w464-h240-k-no",
      "kgmid": "/g/11tgdyn272"
    },
    {
      "title": "My Shared Kitchen",
      "price": null,
      "categoryName": "Shared-use commercial kitchen",
      "address": "1544 Fleetwood Dr, Elgin, IL 60123, United States",
      "neighborhood": null,
      "street": "1544 Fleetwood Dr",
      "city": "Elgin",
      "postalCode": "60123",
      "state": "Illinois",
      "countryCode": "US",
      "phone": "+1 847-754-1090",
      "phoneUnformatted": "+18477541090",
      "claimThisBusiness": false,
      "location": {
        "lat": 42.0212467,
        "lng": -88.3147627
      },
      "totalScore": 5,
      "permanentlyClosed": false,
      "temporarilyClosed": false,
      "placeId": "ChIJNaD1aY4FD4gR5G_z0zkgNt4",
      "categories": ["Shared-use commercial kitchen", "Caterer"],
      "fid": "0x880f058e69f5a035:0xde362039d3f36fe4",
      "cid": "16012020957903548388",
      "reviewsCount": 2,
      "imagesCount": 1,
      "imageCategories": [],
      "scrapedAt": "2025-07-17T00:10:32.186Z",
      "googleFoodUrl": null,
      "hotelAds": [],
      "openingHours": [
        {
          "day": "Monday",
          "hours": "Open 24 hours"
        },
        {
          "day": "Tuesday",
          "hours": "Open 24 hours"
        },
        {
          "day": "Wednesday",
          "hours": "Open 24 hours"
        },
        {
          "day": "Thursday",
          "hours": "Open 24 hours"
        },
        {
          "day": "Friday",
          "hours": "Open 24 hours"
        },
        {
          "day": "Saturday",
          "hours": "Open 24 hours"
        },
        {
          "day": "Sunday",
          "hours": "Open 24 hours"
        }
      ],
      "additionalOpeningHours": {
        "Delivery": [
          {
            "day": "Monday",
            "hours": "Open 24 hours"
          },
          {
            "day": "Tuesday",
            "hours": "Open 24 hours"
          },
          {
            "day": "Wednesday",
            "hours": "Open 24 hours"
          },
          {
            "day": "Thursday",
            "hours": "Open 24 hours"
          },
          {
            "day": "Friday",
            "hours": "Open 24 hours"
          },
          {
            "day": "Saturday",
            "hours": "Open 24 hours"
          },
          {
            "day": "Sunday",
            "hours": "Open 24 hours"
          }
        ],
        "Pickup": [
          {
            "day": "Monday",
            "hours": "Open 24 hours"
          },
          {
            "day": "Tuesday",
            "hours": "Open 24 hours"
          },
          {
            "day": "Wednesday",
            "hours": "Open 24 hours"
          },
          {
            "day": "Thursday",
            "hours": "Open 24 hours"
          },
          {
            "day": "Friday",
            "hours": "Open 24 hours"
          },
          {
            "day": "Saturday",
            "hours": "Open 24 hours"
          },
          {
            "day": "Sunday",
            "hours": "Open 24 hours"
          }
        ],
        "Access": [
          {
            "day": "Monday",
            "hours": "Open 24 hours"
          },
          {
            "day": "Tuesday",
            "hours": "Open 24 hours"
          },
          {
            "day": "Wednesday",
            "hours": "Open 24 hours"
          },
          {
            "day": "Thursday",
            "hours": "Open 24 hours"
          },
          {
            "day": "Friday",
            "hours": "Open 24 hours"
          },
          {
            "day": "Saturday",
            "hours": "Open 24 hours"
          },
          {
            "day": "Sunday",
            "hours": "Open 24 hours"
          }
        ]
      },
      "peopleAlsoSearch": [],
      "placesTags": [],
      "reviewsTags": [],
      "additionalInfo": {
        "Service options": [
          {
            "Delivery": true
          }
        ],
        "Accessibility": [
          {
            "Wheelchair-accessible car park": true
          }
        ]
      },
      "gasPrices": [],
      "url": "https://www.google.com/maps/search/?api=1&query=My%20Shared%20Kitchen&query_place_id=ChIJNaD1aY4FD4gR5G_z0zkgNt4",
      "searchPageUrl": "https://www.google.com/maps/search/shared-use%20commercial%20kitchen/@41.360803795483946,-90.28142009787805,10z?hl=en",
      "searchString": "shared-use commercial kitchen",
      "language": "en",
      "rank": 8,
      "isAdvertisement": false,
      "imageUrl": "https://streetviewpixels-pa.googleapis.com/v1/thumbnail?panoid=oWQXbRvCSGfhcftce9j7iQ&cb_client=search.gws-prod.gps&w=408&h=240&yaw=59.775616&pitch=0&thumbfov=100",
      "kgmid": "/g/11kxc7drbq"
    },
    {
      "title": "Cookin' Z Kitchen Rental & Commissary, LLC",
      "price": null,
      "categoryName": "Shared-use commercial kitchen",
      "address": "1026 Industry Rd, New Lenox, IL 60451, United States",
      "neighborhood": null,
      "street": "1026 Industry Rd",
      "city": "New Lenox",
      "postalCode": "60451",
      "state": "Illinois",
      "countryCode": "US",
      "claimThisBusiness": false,
      "location": {
        "lat": 41.496172,
        "lng": -87.9540944
      },
      "totalScore": 5,
      "permanentlyClosed": false,
      "temporarilyClosed": false,
      "placeId": "ChIJJR4FiqxvDogR257p_2TTCd0",
      "categories": ["Shared-use commercial kitchen"],
      "fid": "0x880e6fac8a051e25:0xdd09d364ffe99edb",
      "cid": "15927493987916160731",
      "reviewsCount": 3,
      "imagesCount": 1,
      "imageCategories": [],
      "scrapedAt": "2025-07-17T00:10:32.186Z",
      "googleFoodUrl": null,
      "hotelAds": [],
      "openingHours": [],
      "peopleAlsoSearch": [],
      "placesTags": [],
      "reviewsTags": [],
      "additionalInfo": {
        "Accessibility": [
          {
            "Wheelchair-accessible car park": true
          },
          {
            "Wheelchair-accessible entrance": true
          }
        ]
      },
      "gasPrices": [],
      "url": "https://www.google.com/maps/search/?api=1&query=Cookin'%20Z%20Kitchen%20Rental%20%26%20Commissary%2C%20LLC&query_place_id=ChIJJR4FiqxvDogR257p_2TTCd0",
      "searchPageUrl": "https://www.google.com/maps/search/shared-use%20commercial%20kitchen/@41.360803795483946,-90.28142009787805,10z?hl=en",
      "searchString": "shared-use commercial kitchen",
      "language": "en",
      "rank": 9,
      "isAdvertisement": false,
      "imageUrl": "https://streetviewpixels-pa.googleapis.com/v1/thumbnail?panoid=MOCZNkNoeEt7AnIA0FdfEA&cb_client=search.gws-prod.gps&w=408&h=240&yaw=267.00165&pitch=0&thumbfov=100",
      "kgmid": "/g/11m40yjdtv"
    },
    {
      "title": "Artisans Kitchen",
      "price": null,
      "categoryName": "Shared-use commercial kitchen",
      "address": "1480 Old Deerfield Rd Ste 16, Highland Park, IL 60035, United States",
      "neighborhood": null,
      "street": "1480 Old Deerfield Rd Ste 16",
      "city": "Highland Park",
      "postalCode": "60035",
      "state": "Illinois",
      "countryCode": "US",
      "website": "http://etaskitchenrental.com/",
      "phone": "+1 847-525-8383",
      "phoneUnformatted": "+18475258383",
      "claimThisBusiness": false,
      "location": {
        "lat": 42.1722402,
        "lng": -87.8165298
      },
      "totalScore": 4.3,
      "permanentlyClosed": false,
      "temporarilyClosed": false,
      "placeId": "ChIJH8IPwFXAD4gRFc-w2VMNPMA",
      "categories": ["Shared-use commercial kitchen"],
      "fid": "0x880fc055c00fc21f:0xc03c0d53d9b0cf15",
      "cid": "13851961207670492949",
      "reviewsCount": 12,
      "imagesCount": 11,
      "imageCategories": [],
      "scrapedAt": "2025-07-17T00:10:32.186Z",
      "googleFoodUrl": null,
      "hotelAds": [],
      "openingHours": [
        {
          "day": "Monday",
          "hours": "Open 24 hours"
        },
        {
          "day": "Tuesday",
          "hours": "Open 24 hours"
        },
        {
          "day": "Wednesday",
          "hours": "Open 24 hours"
        },
        {
          "day": "Thursday",
          "hours": "Open 24 hours"
        },
        {
          "day": "Friday",
          "hours": "Open 24 hours"
        },
        {
          "day": "Saturday",
          "hours": "Open 24 hours"
        },
        {
          "day": "Sunday",
          "hours": "Open 24 hours"
        }
      ],
      "peopleAlsoSearch": [],
      "placesTags": [],
      "reviewsTags": [],
      "additionalInfo": {
        "Payments": [
          {
            "Credit cards": true
          },
          {
            "Debit cards": true
          },
          {
            "Credit cards": true
          }
        ]
      },
      "gasPrices": [],
      "url": "https://www.google.com/maps/search/?api=1&query=Artisans%20Kitchen&query_place_id=ChIJH8IPwFXAD4gRFc-w2VMNPMA",
      "searchPageUrl": "https://www.google.com/maps/search/shared-use%20commercial%20kitchen/@41.360803795483946,-90.28142009787805,10z?hl=en",
      "searchString": "shared-use commercial kitchen",
      "language": "en",
      "rank": 10,
      "isAdvertisement": false,
      "imageUrl": "https://lh3.googleusercontent.com/gps-cs-s/AC9h4nrfN6YKabCGyH1DbzW6AaMyiyc05SoDvxs1qXKmkkc7_RNh9e3Vlkixbkdz6RvITZl3MIpz9CUonLC1e03Xhhp5Kgsmq5_SQDEdZCxmUz_rdTDfWttSGaB5BgCunxC7gmJQfAFVvA=w408-h306-k-no",
      "kgmid": "/g/1tdb08s1"
    },
    {
      "title": "SAAGE Culinary Studio",
      "price": null,
      "categoryName": "Shared-use commercial kitchen",
      "address": "1904 Brookdale Rd Suite 128, Naperville, IL 60563, United States",
      "neighborhood": "Naperville Park District",
      "street": "1904 Brookdale Rd Suite 128",
      "city": "Naperville",
      "postalCode": "60563",
      "state": "Illinois",
      "countryCode": "US",
      "website": "http://www.saageculinary.com/",
      "claimThisBusiness": false,
      "location": {
        "lat": 41.7917825,
        "lng": -88.1995848
      },
      "totalScore": 4.4,
      "permanentlyClosed": false,
      "temporarilyClosed": false,
      "placeId": "ChIJReznLTf4DogR0CEDPp2lvvg",
      "categories": ["Shared-use commercial kitchen"],
      "fid": "0x880ef8372de7ec45:0xf8bea59d3e0321d0",
      "cid": "17923945661749993936",
      "reviewsCount": 9,
      "imagesCount": 17,
      "imageCategories": [],
      "scrapedAt": "2025-07-17T00:10:32.186Z",
      "googleFoodUrl": null,
      "hotelAds": [],
      "openingHours": [],
      "peopleAlsoSearch": [],
      "placesTags": [],
      "reviewsTags": [],
      "additionalInfo": {
        "From the business": [
          {
            "Identifies as Asian-owned": true
          },
          {
            "Identifies as women-owned": true
          }
        ],
        "Service options": [
          {
            "On-site services": true
          }
        ],
        "Accessibility": [
          {
            "Wheelchair-accessible car park": true
          },
          {
            "Wheelchair-accessible entrance": true
          }
        ],
        "Payments": [
          {
            "Cheques": true
          },
          {
            "Credit cards": true
          },
          {
            "Debit cards": true
          },
          {
            "Credit cards": true
          }
        ]
      },
      "gasPrices": [],
      "url": "https://www.google.com/maps/search/?api=1&query=SAAGE%20Culinary%20Studio&query_place_id=ChIJReznLTf4DogR0CEDPp2lvvg",
      "searchPageUrl": "https://www.google.com/maps/search/shared-use%20commercial%20kitchen/@41.360803795483946,-90.28142009787805,10z?hl=en",
      "searchString": "shared-use commercial kitchen",
      "language": "en",
      "rank": 11,
      "isAdvertisement": false,
      "imageUrl": "https://lh3.googleusercontent.com/gps-cs-s/AC9h4no4JeeXm03OcdmDYKuBq3AXlgIjMk8p08mRxN6ji3TgSWNqLzKVtsTUWN7KFeente6e9X0KPkmXmh_96xrk4IREPaqPpxQdBbqNbboc4MtW8aTSjSWdw7zipVBvPotJ3OwBuvzV=w408-h272-k-no",
      "kgmid": "/g/11bymykzd3"
    },
    {
      "title": "Atrevete Collaborative Kitchen Co.",
      "price": null,
      "categoryName": "Shared-use commercial kitchen",
      "address": "111 S Lake St, Montgomery, IL 60538, United States",
      "neighborhood": null,
      "street": "111 S Lake St",
      "city": "Montgomery",
      "postalCode": "60538",
      "state": "Illinois",
      "countryCode": "US",
      "website": "http://atrevete-collaborative-kitchen.com/",
      "phone": "+1 630-212-5305",
      "phoneUnformatted": "+16302125305",
      "claimThisBusiness": false,
      "location": {
        "lat": 41.729573,
        "lng": -88.3455637
      },
      "totalScore": 5,
      "permanentlyClosed": false,
      "temporarilyClosed": false,
      "placeId": "ChIJSceDgpPvDogRghKRsLCdhqQ",
      "categories": ["Shared-use commercial kitchen"],
      "fid": "0x880eef938283c749:0xa4869db0b0911282",
      "cid": "11855336451301511810",
      "reviewsCount": 3,
      "imagesCount": 4,
      "imageCategories": [],
      "scrapedAt": "2025-07-17T00:10:32.187Z",
      "googleFoodUrl": null,
      "hotelAds": [],
      "openingHours": [
        {
          "day": "Monday",
          "hours": "Open 24 hours"
        },
        {
          "day": "Tuesday",
          "hours": "Open 24 hours"
        },
        {
          "day": "Wednesday",
          "hours": "Open 24 hours"
        },
        {
          "day": "Thursday",
          "hours": "Open 24 hours"
        },
        {
          "day": "Friday",
          "hours": "Open 24 hours"
        },
        {
          "day": "Saturday",
          "hours": "Open 24 hours"
        },
        {
          "day": "Sunday",
          "hours": "Open 24 hours"
        }
      ],
      "peopleAlsoSearch": [],
      "placesTags": [],
      "reviewsTags": [],
      "additionalInfo": {
        "Accessibility": [
          {
            "Wheelchair-accessible car park": true
          },
          {
            "Wheelchair-accessible entrance": true
          }
        ]
      },
      "gasPrices": [],
      "url": "https://www.google.com/maps/search/?api=1&query=Atrevete%20Collaborative%20Kitchen%20Co.&query_place_id=ChIJSceDgpPvDogRghKRsLCdhqQ",
      "searchPageUrl": "https://www.google.com/maps/search/shared-use%20commercial%20kitchen/@41.360803795483946,-90.28142009787805,10z?hl=en",
      "searchString": "shared-use commercial kitchen",
      "language": "en",
      "rank": 13,
      "isAdvertisement": false,
      "imageUrl": "https://lh3.googleusercontent.com/p/AF1QipNHr40jaayAJkcXhDmhNZc9ycdmr9LBrZ_AOB72=w408-h272-k-no",
      "kgmid": "/g/11kk6353bm"
    },
    {
      "title": "Hub Kitchen",
      "price": null,
      "categoryName": "Shared-use commercial kitchen",
      "address": "7225 W North Ave, River Forest, IL 60305, United States",
      "neighborhood": null,
      "street": "7225 W North Ave",
      "city": "River Forest",
      "postalCode": "60305",
      "state": "Illinois",
      "countryCode": "US",
      "website": "https://www.hubkitchen.com/",
      "phone": "+1 773-818-1127",
      "phoneUnformatted": "+17738181127",
      "claimThisBusiness": false,
      "location": {
        "lat": 41.9086393,
        "lng": -87.8068196
      },
      "totalScore": 3.7,
      "permanentlyClosed": false,
      "temporarilyClosed": false,
      "placeId": "ChIJFVaWfRHLD4gRpU96OTuB1H4",
      "categories": ["Shared-use commercial kitchen"],
      "fid": "0x880fcb117d965615:0x7ed4813b397a4fa5",
      "cid": "9139071635208949669",
      "reviewsCount": 3,
      "imagesCount": 3,
      "imageCategories": [],
      "scrapedAt": "2025-07-17T00:10:32.187Z",
      "googleFoodUrl": null,
      "hotelAds": [],
      "openingHours": [
        {
          "day": "Monday",
          "hours": "Open 24 hours"
        },
        {
          "day": "Tuesday",
          "hours": "Open 24 hours"
        },
        {
          "day": "Wednesday",
          "hours": "Open 24 hours"
        },
        {
          "day": "Thursday",
          "hours": "Open 24 hours"
        },
        {
          "day": "Friday",
          "hours": "Open 24 hours"
        },
        {
          "day": "Saturday",
          "hours": "Open 24 hours"
        },
        {
          "day": "Sunday",
          "hours": "Open 24 hours"
        }
      ],
      "peopleAlsoSearch": [],
      "placesTags": [],
      "reviewsTags": [],
      "additionalInfo": {
        "Accessibility": [
          {
            "Wheelchair-accessible car park": true
          }
        ],
        "Parking": [
          {
            "Free parking lot": true
          }
        ]
      },
      "gasPrices": [],
      "url": "https://www.google.com/maps/search/?api=1&query=Hub%20Kitchen&query_place_id=ChIJFVaWfRHLD4gRpU96OTuB1H4",
      "searchPageUrl": "https://www.google.com/maps/search/shared-use%20commercial%20kitchen/@41.360803795483946,-90.28142009787805,10z?hl=en",
      "searchString": "shared-use commercial kitchen",
      "language": "en",
      "rank": 14,
      "isAdvertisement": false,
      "imageUrl": "https://streetviewpixels-pa.googleapis.com/v1/thumbnail?panoid=DTolmJorAGIV73RUSvpbzQ&cb_client=search.gws-prod.gps&w=408&h=240&yaw=195.77069&pitch=0&thumbfov=100",
      "kgmid": "/g/11w3kl5yd3"
    },
    {
      "title": "Cucina Fresca Kitchen, Inc.",
      "price": null,
      "categoryName": "Shared-use commercial kitchen",
      "address": "16108 S, Division St ste 110, Plainfield, IL 60586, United States",
      "neighborhood": null,
      "street": "16108 S, Division St ste 110",
      "city": "Plainfield",
      "postalCode": "60586",
      "state": "IL",
      "countryCode": "US",
      "website": "http://www.cucinafrescakitchen.com/",
      "phone": "+1 847-544-6878",
      "phoneUnformatted": "+18475446878",
      "claimThisBusiness": false,
      "location": {
        "lat": 41.5901666,
        "lng": -88.2035614
      },
      "totalScore": 4.5,
      "permanentlyClosed": false,
      "temporarilyClosed": false,
      "placeId": "ChIJudkD0rf1DogRcy7TJ8MiM4c",
      "categories": ["Shared-use commercial kitchen"],
      "fid": "0x880ef5b7d203d9b9:0x873322c327d32e73",
      "cid": "9742168640514633331",
      "reviewsCount": 2,
      "imagesCount": 8,
      "imageCategories": [],
      "scrapedAt": "2025-07-17T00:10:32.187Z",
      "googleFoodUrl": null,
      "hotelAds": [],
      "openingHours": [
        {
          "day": "Monday",
          "hours": "4 to 7 PM"
        },
        {
          "day": "Tuesday",
          "hours": "11 AM to 6 PM"
        },
        {
          "day": "Wednesday",
          "hours": "11 AM to 6 PM"
        },
        {
          "day": "Thursday",
          "hours": "11 AM to 6 PM"
        },
        {
          "day": "Friday",
          "hours": "11 AM to 6 PM"
        },
        {
          "day": "Saturday",
          "hours": "10 AM to 5 PM"
        },
        {
          "day": "Sunday",
          "hours": "11 AM to 3 PM"
        }
      ],
      "peopleAlsoSearch": [],
      "placesTags": [],
      "reviewsTags": [],
      "additionalInfo": {
        "From the business": [
          {
            "Identifies as women-owned": true
          }
        ],
        "Accessibility": [
          {
            "Wheelchair-accessible car park": true
          },
          {
            "Wheelchair-accessible entrance": true
          }
        ],
        "Payments": [
          {
            "Credit cards": true
          }
        ]
      },
      "gasPrices": [],
      "url": "https://www.google.com/maps/search/?api=1&query=Cucina%20Fresca%20Kitchen%2C%20Inc.&query_place_id=ChIJudkD0rf1DogRcy7TJ8MiM4c",
      "searchPageUrl": "https://www.google.com/maps/search/shared-use%20commercial%20kitchen/@41.360803795483946,-90.28142009787805,10z?hl=en",
      "searchString": "shared-use commercial kitchen",
      "language": "en",
      "rank": 16,
      "isAdvertisement": false,
      "imageUrl": "https://lh3.googleusercontent.com/p/AF1QipNY0_N0mbfnf7o7s0m7Ohq2Dh0e59FB40zE-gJl=w426-h240-k-no",
      "kgmid": "/g/11j8hk_pmf"
    },
    {
      "title": "Westline Food Junction Commercial Kitchens",
      "price": null,
      "categoryName": "Shared-use commercial kitchen",
      "address": "850 W Superior St, Chicago, IL 60642, United States",
      "neighborhood": "River West",
      "street": "850 W Superior St",
      "city": "Chicago",
      "postalCode": "60642",
      "state": "Illinois",
      "countryCode": "US",
      "website": "https://bookaghostkitchentour.com/west-line-junction?utm_source=gmb",
      "claimThisBusiness": true,
      "location": {
        "lat": 41.895721,
        "lng": -87.64963
      },
      "totalScore": 1,
      "permanentlyClosed": false,
      "temporarilyClosed": false,
      "placeId": "ChIJ2w0jfa3TD4gRDRWsHDhsPAA",
      "categories": ["Shared-use commercial kitchen"],
      "fid": "0x880fd3ad7d230ddb:0x3c6c381cac150d",
      "cid": "17007486857647373",
      "reviewsCount": 2,
      "imagesCount": 1,
      "imageCategories": [],
      "scrapedAt": "2025-07-17T00:10:32.187Z",
      "googleFoodUrl": null,
      "hotelAds": [],
      "openingHours": [
        {
          "day": "Monday",
          "hours": "Open 24 hours"
        },
        {
          "day": "Tuesday",
          "hours": "Open 24 hours"
        },
        {
          "day": "Wednesday",
          "hours": "Open 24 hours"
        },
        {
          "day": "Thursday",
          "hours": "Open 24 hours"
        },
        {
          "day": "Friday",
          "hours": "Open 24 hours"
        },
        {
          "day": "Saturday",
          "hours": "Open 24 hours"
        },
        {
          "day": "Sunday",
          "hours": "Open 24 hours"
        }
      ],
      "peopleAlsoSearch": [],
      "placesTags": [],
      "reviewsTags": [],
      "additionalInfo": {
        "Accessibility": [
          {
            "Wheelchair-accessible entrance": true
          }
        ],
        "Payments": [
          {
            "Credit cards": true
          }
        ]
      },
      "gasPrices": [],
      "url": "https://www.google.com/maps/search/?api=1&query=Westline%20Food%20Junction%20Commercial%20Kitchens&query_place_id=ChIJ2w0jfa3TD4gRDRWsHDhsPAA",
      "searchPageUrl": "https://www.google.com/maps/search/shared-use%20commercial%20kitchen/@41.360803795483946,-90.28142009787805,10z?hl=en",
      "searchString": "shared-use commercial kitchen",
      "language": "en",
      "rank": 17,
      "isAdvertisement": false,
      "imageUrl": "https://streetviewpixels-pa.googleapis.com/v1/thumbnail?panoid=nzs4dd6Id_EkVTXsGGiLsA&cb_client=search.gws-prod.gps&w=408&h=240&yaw=3.2335029&pitch=0&thumbfov=100",
      "kgmid": "/g/11syv071pp"
    },
    {
      "title": "Kamping Kitchen",
      "price": null,
      "categoryName": "Shared-use commercial kitchen",
      "address": "10982 US-20, Lena, IL 61048",
      "neighborhood": null,
      "street": "10982 US-20",
      "city": "Lena",
      "postalCode": "61048",
      "state": "Illinois",
      "countryCode": "US",
      "claimThisBusiness": true,
      "location": {
        "lat": 42.3583641,
        "lng": -89.8224673
      },
      "permanentlyClosed": false,
      "temporarilyClosed": false,
      "placeId": "ChIJxZ-QFwARCIgRWkVdoNKRqwM",
      "categories": ["Shared-use commercial kitchen"],
      "fid": "0x8808110017909fc5:0x3ab91d2a05d455a",
      "cid": "264465336950932826",
      "reviewsCount": 0,
      "imagesCount": null,
      "imageCategories": [],
      "scrapedAt": "2025-07-17T00:10:35.361Z",
      "googleFoodUrl": null,
      "hotelAds": [],
      "openingHours": [],
      "peopleAlsoSearch": [],
      "placesTags": [],
      "reviewsTags": [],
      "additionalInfo": {
        "Accessibility": [
          {
            "Wheelchair accessible parking lot": true
          }
        ]
      },
      "gasPrices": [],
      "url": "https://www.google.com/maps/search/?api=1&query=Kamping%20Kitchen&query_place_id=ChIJxZ-QFwARCIgRWkVdoNKRqwM",
      "searchPageUrl": "https://www.google.com/maps/search/shared-use%20commercial%20kitchen/@42.171604118225915,-89.2664881,10z?hl=en",
      "searchString": "shared-use commercial kitchen",
      "language": "en",
      "rank": 5,
      "isAdvertisement": false,
      "kgmid": "/g/11vyfl1sv4"
    },
    {
      "title": "Share A Kitchen",
      "price": null,
      "address": "1020 W Devon Ave, Elk Grove Village, IL 60007",
      "neighborhood": null,
      "street": "1020 W Devon Ave",
      "city": "Elk Grove Village",
      "postalCode": "60007",
      "state": "Illinois",
      "countryCode": "US",
      "website": "http://www.shareakitchen.com/",
      "claimThisBusiness": true,
      "location": {
        "lat": 41.9929798,
        "lng": -88.0259334
      },
      "totalScore": 4.8,
      "permanentlyClosed": false,
      "temporarilyClosed": false,
      "placeId": "ChIJg8oL9BGuD4gRkR4jv2kbyKM",
      "categories": [],
      "fid": "0x880fae11f40bca83:0xa3c81b69bf231e91",
      "cid": "11801712964516650641",
      "reviewsCount": 4,
      "imagesCount": 1,
      "imageCategories": [],
      "scrapedAt": "2025-07-17T00:10:35.362Z",
      "googleFoodUrl": null,
      "hotelAds": [],
      "openingHours": [],
      "peopleAlsoSearch": [],
      "placesTags": [],
      "reviewsTags": [],
      "additionalInfo": {
        "Accessibility": [
          {
            "Wheelchair accessible entrance": true
          },
          {
            "Wheelchair accessible parking lot": true
          }
        ]
      },
      "gasPrices": [],
      "url": "https://www.google.com/maps/search/?api=1&query=Share%20A%20Kitchen&query_place_id=ChIJg8oL9BGuD4gRkR4jv2kbyKM",
      "searchPageUrl": "https://www.google.com/maps/search/shared-use%20commercial%20kitchen/@42.171604118225915,-89.2664881,10z?hl=en",
      "searchString": "shared-use commercial kitchen",
      "language": "en",
      "rank": 7,
      "isAdvertisement": false,
      "imageUrl": "https://streetviewpixels-pa.googleapis.com/v1/thumbnail?panoid=eAbrD5gDbYWzazZ9cj9U_g&cb_client=search.gws-prod.gps&w=408&h=240&yaw=15.885638&pitch=0&thumbfov=100",
      "kgmid": "/g/11bw1q1v9y"
    },
    {
      "title": "Lake Zurich Community Kitchen",
      "price": null,
      "categoryName": "Shared-use commercial kitchen",
      "address": "700 Telser Rd, Lake Zurich, IL 60047",
      "neighborhood": null,
      "street": "700 Telser Rd",
      "city": "Lake Zurich",
      "postalCode": "60047",
      "state": "Illinois",
      "countryCode": "US",
      "website": "http://lakezurichcommunitykitchen.com/",
      "phone": "(773) 885-8811",
      "phoneUnformatted": "+17738858811",
      "claimThisBusiness": false,
      "location": {
        "lat": 42.21043,
        "lng": -88.0672756
      },
      "permanentlyClosed": false,
      "temporarilyClosed": false,
      "placeId": "ChIJZRHVxjijD4gRRmPybOFoxpQ",
      "categories": ["Shared-use commercial kitchen"],
      "fid": "0x880fa338c6d51165:0x94c668e16cf26346",
      "cid": "10720371280406799174",
      "reviewsCount": 0,
      "imagesCount": 10,
      "imageCategories": [],
      "scrapedAt": "2025-07-17T00:10:35.362Z",
      "googleFoodUrl": null,
      "hotelAds": [],
      "openingHours": [
        {
          "day": "Monday",
          "hours": "Closed"
        },
        {
          "day": "Tuesday",
          "hours": "Open 24 hours"
        },
        {
          "day": "Wednesday",
          "hours": "Open 24 hours"
        },
        {
          "day": "Thursday",
          "hours": "Open 24 hours"
        },
        {
          "day": "Friday",
          "hours": "Open 24 hours"
        },
        {
          "day": "Saturday",
          "hours": "Open 24 hours"
        },
        {
          "day": "Sunday",
          "hours": "Open 24 hours"
        }
      ],
      "peopleAlsoSearch": [],
      "placesTags": [],
      "reviewsTags": [],
      "additionalInfo": {
        "Accessibility": [
          {
            "Wheelchair accessible entrance": true
          },
          {
            "Wheelchair accessible parking lot": true
          }
        ]
      },
      "gasPrices": [],
      "url": "https://www.google.com/maps/search/?api=1&query=Lake%20Zurich%20Community%20Kitchen&query_place_id=ChIJZRHVxjijD4gRRmPybOFoxpQ",
      "searchPageUrl": "https://www.google.com/maps/search/shared-use%20commercial%20kitchen/@42.171604118225915,-89.2664881,10z?hl=en",
      "searchString": "shared-use commercial kitchen",
      "language": "en",
      "rank": 16,
      "isAdvertisement": false,
      "imageUrl": "https://lh3.googleusercontent.com/p/AF1QipOO-V3cupyL9HDcPaLcA48ZMImSRFysJCrsA_pB=w408-h272-k-no",
      "kgmid": "/g/11ngg5nrrz"
    },
    {
      "title": "Leave it to Chef Rotary Serves Food",
      "price": null,
      "categoryName": "Shared-use commercial kitchen",
      "address": "216 N Washington St, Carbondale, IL 62901, United States",
      "neighborhood": null,
      "street": "216 N Washington St",
      "city": "Carbondale",
      "postalCode": "62901",
      "state": "Illinois",
      "countryCode": "US",
      "website": "http://leaveittochef.com/",
      "phone": "+1 618-893-1717",
      "phoneUnformatted": "+16188931717",
      "claimThisBusiness": false,
      "location": {
        "lat": 37.7289636,
        "lng": -89.2158793
      },
      "totalScore": 5,
      "permanentlyClosed": false,
      "temporarilyClosed": false,
      "placeId": "ChIJAaA2U0gRd4gRdMaW2L_cpJA",
      "categories": [
        "Shared-use commercial kitchen",
        "Food bank",
        "Restaurant"
      ],
      "fid": "0x887711485336a001:0x90a4dcbfd896c674",
      "cid": "10422698154172794484",
      "reviewsCount": 1,
      "imagesCount": 15,
      "imageCategories": [],
      "scrapedAt": "2025-07-17T00:10:38.326Z",
      "googleFoodUrl": null,
      "hotelAds": [],
      "openingHours": [],
      "peopleAlsoSearch": [],
      "placesTags": [],
      "reviewsTags": [],
      "additionalInfo": {
        "Service options": [
          {
            "Delivery": false
          }
        ],
        "Accessibility": [
          {
            "Wheelchair-accessible car park": true
          },
          {
            "Wheelchair-accessible entrance": true
          },
          {
            "Wheelchair-accessible seating": true
          },
          {
            "Wheelchair-accessible toilet": true
          }
        ],
        "Amenities": [
          {
            "Gender-neutral toilets": true
          }
        ],
        "Crowd": [
          {
            "LGBTQ+ friendly": true
          },
          {
            "Transgender safe space": true
          }
        ],
        "Parking": [
          {
            "Free of charge street parking": true
          },
          {
            "Free parking lot": true
          }
        ]
      },
      "gasPrices": [],
      "url": "https://www.google.com/maps/search/?api=1&query=Leave%20it%20to%20Chef%20Rotary%20Serves%20Food&query_place_id=ChIJAaA2U0gRd4gRdMaW2L_cpJA",
      "searchPageUrl": "https://www.google.com/maps/search/shared-use%20commercial%20kitchen/@38.11760250451607,-89.2664881,10z?hl=en",
      "searchString": "shared-use commercial kitchen",
      "language": "en",
      "rank": 1,
      "isAdvertisement": false,
      "imageUrl": "https://lh3.googleusercontent.com/gps-cs-s/AC9h4nqwkeg3Zuzn2Xtj14-vyCY_2GZ5y3XXKa5xT-8JCTVtp9wINC4txuhmnMfr2wAuQDhM28F3Zes7-9p0Mjz4y6ZGUtk-hOJ6mU3tn0GQ-kmu8rcui37IRFpUoGBs0H3LAJRkqtAxjQ=w408-h544-k-no",
      "kgmid": "/g/11s54gc2bc"
    },
    {
      "title": "T & V Commercial Kitchen",
      "price": null,
      "categoryName": "Shared-use commercial kitchen",
      "address": "304 S Walnut St Suite D, Pinckneyville, IL 62274, United States",
      "neighborhood": null,
      "street": "304 S Walnut St Suite D",
      "city": "Pinckneyville",
      "postalCode": "62274",
      "state": "Illinois",
      "countryCode": "US",
      "website": "https://tapsnvine.com/commercial-kitchen",
      "phone": "+1 832-367-7315",
      "phoneUnformatted": "+18323677315",
      "claimThisBusiness": false,
      "location": {
        "lat": 38.0775138,
        "lng": -89.3828772
      },
      "permanentlyClosed": false,
      "temporarilyClosed": false,
      "placeId": "ChIJXW0agbj5dogRfJaVopx5j3k",
      "categories": ["Shared-use commercial kitchen"],
      "fid": "0x8876f9b8811a6d5d:0x798f799ca295967c",
      "cid": "8759353513908475516",
      "reviewsCount": 0,
      "imagesCount": 1,
      "imageCategories": [],
      "scrapedAt": "2025-07-17T00:10:38.326Z",
      "googleFoodUrl": null,
      "hotelAds": [],
      "openingHours": [
        {
          "day": "Monday",
          "hours": "Open 24 hours"
        },
        {
          "day": "Tuesday",
          "hours": "Open 24 hours"
        },
        {
          "day": "Wednesday",
          "hours": "Open 24 hours"
        },
        {
          "day": "Thursday",
          "hours": "Open 24 hours"
        },
        {
          "day": "Friday",
          "hours": "Open 24 hours"
        },
        {
          "day": "Saturday",
          "hours": "Open 24 hours"
        },
        {
          "day": "Sunday",
          "hours": "Open 24 hours"
        }
      ],
      "peopleAlsoSearch": [],
      "placesTags": [],
      "reviewsTags": [],
      "additionalInfo": {
        "Accessibility": [
          {
            "Wheelchair-accessible car park": true
          }
        ]
      },
      "gasPrices": [],
      "url": "https://www.google.com/maps/search/?api=1&query=T%20%26%20V%20Commercial%20Kitchen&query_place_id=ChIJXW0agbj5dogRfJaVopx5j3k",
      "searchPageUrl": "https://www.google.com/maps/search/shared-use%20commercial%20kitchen/@38.11760250451607,-89.2664881,10z?hl=en",
      "searchString": "shared-use commercial kitchen",
      "language": "en",
      "rank": 2,
      "isAdvertisement": false,
      "imageUrl": "https://streetviewpixels-pa.googleapis.com/v1/thumbnail?panoid=E3yMcwm97GJ65sWfluhjlA&cb_client=search.gws-prod.gps&w=408&h=240&yaw=101.40398&pitch=0&thumbfov=100",
      "kgmid": "/g/11lz290fjf"
    },
    {
      "title": "Serv-U Restaurant Equipment & Supply",
      "price": null,
      "categoryName": "Kitchen supply store",
      "address": "301 Mercury Dr #2, Champaign, IL 61822",
      "neighborhood": null,
      "street": "301 Mercury Dr #2",
      "city": "Champaign",
      "postalCode": "61822",
      "state": "Illinois",
      "countryCode": "US",
      "website": "http://www.servu-online.com/",
      "phone": "(800) 797-3788",
      "phoneUnformatted": "+18007973788",
      "claimThisBusiness": false,
      "location": {
        "lat": 40.1485524,
        "lng": -88.2349935
      },
      "totalScore": 4.3,
      "permanentlyClosed": false,
      "temporarilyClosed": false,
      "placeId": "ChIJmXgGvZTZDIgR2OB_9nAKmfI",
      "categories": [
        "Kitchen supply store",
        "Bar stool supplier",
        "Commercial refrigerator supplier",
        "Furniture store",
        "Furniture wholesaler",
        "Restaurant supply store",
        "Wholesaler"
      ],
      "fid": "0x880cd994bd067899:0xf2990a70f67fe0d8",
      "cid": "17481014908903481560",
      "reviewsCount": 29,
      "imagesCount": 17,
      "imageCategories": [],
      "scrapedAt": "2025-07-17T00:10:41.436Z",
      "googleFoodUrl": null,
      "hotelAds": [],
      "openingHours": [
        {
          "day": "Monday",
          "hours": "9 AM to 4 PM"
        },
        {
          "day": "Tuesday",
          "hours": "9 AM to 4 PM"
        },
        {
          "day": "Wednesday",
          "hours": "9 AM to 4 PM"
        },
        {
          "day": "Thursday",
          "hours": "9 AM to 4 PM"
        },
        {
          "day": "Friday",
          "hours": "9 AM to 4 PM"
        },
        {
          "day": "Saturday",
          "hours": "Closed"
        },
        {
          "day": "Sunday",
          "hours": "Closed"
        }
      ],
      "peopleAlsoSearch": [],
      "placesTags": [],
      "reviewsTags": [],
      "additionalInfo": {
        "Service options": [
          {
            "Delivery": true
          },
          {
            "In-store pickup": true
          }
        ],
        "Accessibility": [
          {
            "Wheelchair accessible entrance": true
          },
          {
            "Wheelchair accessible parking lot": true
          }
        ],
        "Planning": [
          {
            "Quick visit": true
          }
        ],
        "Payments": [
          {
            "Credit cards": true
          },
          {
            "Debit cards": true
          },
          {
            "Credit cards": true
          }
        ]
      },
      "gasPrices": [],
      "url": "https://www.google.com/maps/search/?api=1&query=Serv-U%20Restaurant%20Equipment%20%26%20Supply&query_place_id=ChIJmXgGvZTZDIgR2OB_9nAKmfI",
      "searchPageUrl": "https://www.google.com/maps/search/shared-use%20commercial%20kitchen/@39.73920315000001,-88.25155610212195,10z?hl=en",
      "searchString": "shared-use commercial kitchen",
      "language": "en",
      "rank": 1,
      "isAdvertisement": false,
      "imageUrl": "https://lh3.googleusercontent.com/p/AF1QipOFqll_3kGSiqL7Tad9S4ez8O4V8-ozib7A2OBU=w408-h306-k-no",
      "kgmid": "/g/1vljgxv3"
    },
    {
      "title": "The Hive Creative Kitchen",
      "price": null,
      "categoryName": "Coworking space",
      "address": "25520 Pheasant Ln Unit J, Channahon, IL 60410",
      "neighborhood": null,
      "street": "25520 Pheasant Ln Unit J",
      "city": "Channahon",
      "postalCode": "60410",
      "state": "Illinois",
      "countryCode": "US",
      "website": "http://hivekitchen.com/",
      "phone": "(815) 922-7540",
      "phoneUnformatted": "+18159227540",
      "claimThisBusiness": false,
      "location": {
        "lat": 41.4195862,
        "lng": -88.2683973
      },
      "totalScore": 4.9,
      "permanentlyClosed": false,
      "temporarilyClosed": false,
      "placeId": "ChIJE7Yuq7CFDogRGZdjCqwBZX4",
      "categories": ["Coworking space"],
      "fid": "0x880e85b0ab2eb613:0x7e6501ac0a639719",
      "cid": "9107687659846997785",
      "reviewsCount": 91,
      "imagesCount": 43,
      "imageCategories": [],
      "scrapedAt": "2025-07-17T00:10:49.293Z",
      "googleFoodUrl": null,
      "hotelAds": [],
      "openingHours": [
        {
          "day": "Monday",
          "hours": "Closed"
        },
        {
          "day": "Tuesday",
          "hours": "12 to 6 PM"
        },
        {
          "day": "Wednesday",
          "hours": "12 to 9 PM"
        },
        {
          "day": "Thursday",
          "hours": "12 to 9 PM"
        },
        {
          "day": "Friday",
          "hours": "12 to 9 PM"
        },
        {
          "day": "Saturday",
          "hours": "8 AM to 12 PM, 4 to 9 PM"
        },
        {
          "day": "Sunday",
          "hours": "Closed"
        }
      ],
      "peopleAlsoSearch": [],
      "placesTags": [],
      "reviewsTags": [],
      "additionalInfo": {
        "Service options": [
          {
            "Onsite services": true
          }
        ],
        "Accessibility": [
          {
            "Wheelchair accessible entrance": true
          },
          {
            "Wheelchair accessible parking lot": true
          }
        ]
      },
      "gasPrices": [],
      "url": "https://www.google.com/maps/search/?api=1&query=The%20Hive%20Creative%20Kitchen&query_place_id=ChIJE7Yuq7CFDogRGZdjCqwBZX4",
      "searchPageUrl": "https://www.google.com/maps/search/shared-use%20commercial%20kitchen/@41.360803795483946,-89.2664881,10z?hl=en",
      "searchString": "shared-use commercial kitchen",
      "language": "en",
      "rank": 12,
      "isAdvertisement": false,
      "imageUrl": "https://lh3.googleusercontent.com/gps-cs-s/AC9h4nrNQjbXxpWU_FY6HTeBaCP-PKaqHRRG5sh-ziHtZs7uBARX2hIfAA-ob2PwMu8b5Wl_PbwPgCB499kfdt3I699EqbujostuMiWMZ8e9qPQgxPVHuUBGssAN7ZkCq-wEwt7eXwg=w408-h270-k-no",
      "kgmid": "/g/11gmwv1mtv"
    },
    {
      "title": "Spark Shared Kitchen",
      "price": null,
      "categoryName": "Shared-use commercial kitchen",
      "address": "3333 W 47th St, Chicago, IL 60632",
      "neighborhood": "South Side",
      "street": "3333 W 47th St",
      "city": "Chicago",
      "postalCode": "60632",
      "state": "Illinois",
      "countryCode": "US",
      "claimThisBusiness": true,
      "location": {
        "lat": 41.8078428,
        "lng": -87.7078471
      },
      "permanentlyClosed": false,
      "temporarilyClosed": false,
      "placeId": "ChIJUbmFTQAxDogRBObpx3Qbw4U",
      "categories": ["Shared-use commercial kitchen"],
      "fid": "0x880e31004d85b951:0x85c31b74c7e9e604",
      "cid": "9638577815887144452",
      "reviewsCount": 0,
      "imagesCount": 1,
      "imageCategories": [],
      "scrapedAt": "2025-07-17T00:10:49.294Z",
      "googleFoodUrl": null,
      "hotelAds": [],
      "openingHours": [],
      "peopleAlsoSearch": [],
      "placesTags": [],
      "reviewsTags": [],
      "gasPrices": [],
      "url": "https://www.google.com/maps/search/?api=1&query=Spark%20Shared%20Kitchen&query_place_id=ChIJUbmFTQAxDogRBObpx3Qbw4U",
      "searchPageUrl": "https://www.google.com/maps/search/shared-use%20commercial%20kitchen/@41.360803795483946,-89.2664881,10z?hl=en",
      "searchString": "shared-use commercial kitchen",
      "language": "en",
      "rank": 19,
      "isAdvertisement": false,
      "imageUrl": "https://streetviewpixels-pa.googleapis.com/v1/thumbnail?panoid=er_8n8c-SG5T2AdcBCj-eA&cb_client=search.gws-prod.gps&w=408&h=240&yaw=180.02422&pitch=0&thumbfov=100",
      "kgmid": "/g/11vq480m8_"
    },
    {
      "title": "Rockwell Food Pickup",
      "price": null,
      "categoryName": "Shared-use commercial kitchen",
      "address": "4131 N Rockwell St, Chicago, IL 60618",
      "neighborhood": "North Center",
      "street": "4131 N Rockwell St",
      "city": "Chicago",
      "postalCode": "60618",
      "state": "Illinois",
      "countryCode": "US",
      "website": "https://cloudkitchens.com/locations/chicago/north-center/?utm_source=gmb&utm_medium=organic&utm_content=RockwellFoodPick-Up",
      "claimThisBusiness": false,
      "location": {
        "lat": 41.9567927,
        "lng": -87.6929956
      },
      "totalScore": 3,
      "permanentlyClosed": false,
      "temporarilyClosed": false,
      "placeId": "ChIJTzjW69LTD4gRSDH0x4OMGOo",
      "categories": [
        "Shared-use commercial kitchen",
        "Delivery service",
        "Takeout Restaurant"
      ],
      "fid": "0x880fd3d2ebd6384f:0xea188c83c7f43148",
      "cid": "16868386901939466568",
      "reviewsCount": 2,
      "imagesCount": 5,
      "imageCategories": [],
      "scrapedAt": "2025-07-17T00:10:50.978Z",
      "googleFoodUrl": null,
      "hotelAds": [],
      "openingHours": [
        {
          "day": "Monday",
          "hours": "Open 24 hours"
        },
        {
          "day": "Tuesday",
          "hours": "Open 24 hours"
        },
        {
          "day": "Wednesday",
          "hours": "Open 24 hours"
        },
        {
          "day": "Thursday",
          "hours": "Open 24 hours"
        },
        {
          "day": "Friday",
          "hours": "Open 24 hours"
        },
        {
          "day": "Saturday",
          "hours": "Open 24 hours"
        },
        {
          "day": "Sunday",
          "hours": "Open 24 hours"
        }
      ],
      "peopleAlsoSearch": [],
      "placesTags": [],
      "reviewsTags": [],
      "additionalInfo": {
        "Service options": [
          {
            "Delivery": true
          }
        ],
        "Accessibility": [
          {
            "Wheelchair accessible entrance": true
          }
        ],
        "Payments": [
          {
            "Credit cards": true
          },
          {
            "NFC mobile payments": true
          }
        ]
      },
      "gasPrices": [],
      "url": "https://www.google.com/maps/search/?api=1&query=Rockwell%20Food%20Pickup%20-%20Chicago%20CloudKitchens&query_place_id=ChIJTzjW69LTD4gRSDH0x4OMGOo",
      "searchPageUrl": "https://www.google.com/maps/search/shared-use%20commercial%20kitchen/@42.171604118225915,-87.2366241042439,10z?hl=en",
      "searchString": "shared-use commercial kitchen",
      "language": "en",
      "rank": 9,
      "isAdvertisement": false,
      "imageUrl": "https://lh3.googleusercontent.com/p/AF1QipN8yNZYomje4ANzW89DlOxkE0TIM0tcDWiEgGcs=w426-h240-k-no",
      "kgmid": "/g/11syfpn9bt"
    },
    {
      "title": "2ndKitchen",
      "price": null,
      "categoryName": "Delivery service",
      "address": "343 W Erie St, Chicago, IL 60654",
      "neighborhood": "Near North Side",
      "street": "343 W Erie St",
      "city": "Chicago",
      "postalCode": "60654",
      "state": "Illinois",
      "countryCode": "US",
      "website": "https://2ndkitchen.com/",
      "phone": "(312) 313-5080",
      "phoneUnformatted": "+13123135080",
      "claimThisBusiness": false,
      "location": {
        "lat": 41.8936468,
        "lng": -87.6375236
      },
      "totalScore": 4.9,
      "permanentlyClosed": false,
      "temporarilyClosed": false,
      "placeId": "ChIJZxQ-pKctDogRC-jobhkLQKY",
      "categories": [
        "Delivery service",
        "Food and beverage consultant",
        "Hotel supply store"
      ],
      "fid": "0x880e2da7a43e1467:0xa6400b196ee8e80b",
      "cid": "11979587212668364811",
      "reviewsCount": 595,
      "imagesCount": 8,
      "imageCategories": [],
      "scrapedAt": "2025-07-17T00:10:50.978Z",
      "googleFoodUrl": null,
      "hotelAds": [],
      "openingHours": [
        {
          "day": "Monday",
          "hours": "6 AM to 2 AM"
        },
        {
          "day": "Tuesday",
          "hours": "6 AM to 2 AM"
        },
        {
          "day": "Wednesday",
          "hours": "6 AM to 2 AM"
        },
        {
          "day": "Thursday",
          "hours": "6 AM to 2 AM"
        },
        {
          "day": "Friday",
          "hours": "6 AM to 2 AM"
        },
        {
          "day": "Saturday",
          "hours": "6 AM to 2 AM"
        },
        {
          "day": "Sunday",
          "hours": "6 AM to 2 AM"
        }
      ],
      "peopleAlsoSearch": [],
      "placesTags": [],
      "reviewsTags": [],
      "gasPrices": [],
      "url": "https://www.google.com/maps/search/?api=1&query=2ndKitchen&query_place_id=ChIJZxQ-pKctDogRC-jobhkLQKY",
      "searchPageUrl": "https://www.google.com/maps/search/shared-use%20commercial%20kitchen/@42.171604118225915,-87.2366241042439,10z?hl=en",
      "searchString": "shared-use commercial kitchen",
      "language": "en",
      "rank": 10,
      "isAdvertisement": false,
      "imageUrl": "https://lh3.googleusercontent.com/gps-cs-s/AC9h4no12ZgUVH90J-TuWXi_rz5l31RVoWx4-APb5k2bCHlIeDYRIcJpxRpq2weMPPxCxzW0X1vvTABwMD0AdkpCblRnX9zsYtSo6TVNh4JfVqd1HnMtDpS7-v90Y0YCUshr7oh8Bfk=w408-h612-k-no",
      "kgmid": "/g/11fll5xwrm"
    },
    {
      "title": "Daniel's Test Kitchen",
      "price": null,
      "categoryName": "Shared-use commercial kitchen",
      "address": "324 N Leavitt St, Chicago, IL 60612",
      "neighborhood": "Near West Side",
      "street": "324 N Leavitt St",
      "city": "Chicago",
      "postalCode": "60612",
      "state": "Illinois",
      "countryCode": "US",
      "website": "http://www.danielstestkitchen.com/",
      "phone": "(415) 917-4152",
      "phoneUnformatted": "+14159174152",
      "claimThisBusiness": false,
      "location": {
        "lat": 41.8878253,
        "lng": -87.6826325
      },
      "totalScore": 5,
      "permanentlyClosed": false,
      "temporarilyClosed": false,
      "placeId": "ChIJMXCGb7MtDogRud9q6ZtMtaQ",
      "categories": ["Shared-use commercial kitchen"],
      "fid": "0x880e2db36f867031:0xa4b54c9be96adfb9",
      "cid": "11868476625524547513",
      "reviewsCount": 32,
      "imagesCount": 48,
      "imageCategories": [],
      "scrapedAt": "2025-07-17T00:10:50.978Z",
      "googleFoodUrl": null,
      "hotelAds": [],
      "openingHours": [
        {
          "day": "Monday",
          "hours": "Closed"
        },
        {
          "day": "Tuesday",
          "hours": "9 AM to 5 PM"
        },
        {
          "day": "Wednesday",
          "hours": "9 AM to 5 PM"
        },
        {
          "day": "Thursday",
          "hours": "9 AM to 5 PM"
        },
        {
          "day": "Friday",
          "hours": "9 AM to 5 PM"
        },
        {
          "day": "Saturday",
          "hours": "9 AM to 5 PM"
        },
        {
          "day": "Sunday",
          "hours": "9 AM to 5 PM"
        }
      ],
      "peopleAlsoSearch": [],
      "placesTags": [],
      "reviewsTags": [],
      "additionalInfo": {
        "From the business": [
          {
            "Identifies as Black-owned": true
          },
          {
            "Identifies as LGBTQ+ owned": true
          }
        ],
        "Service options": [
          {
            "Delivery": true
          }
        ],
        "Accessibility": [
          {
            "Wheelchair accessible entrance": true
          }
        ],
        "Payments": [
          {
            "Credit cards": true
          }
        ]
      },
      "gasPrices": [],
      "url": "https://www.google.com/maps/search/?api=1&query=Daniel's%20Test%20Kitchen&query_place_id=ChIJMXCGb7MtDogRud9q6ZtMtaQ",
      "searchPageUrl": "https://www.google.com/maps/search/shared-use%20commercial%20kitchen/@42.171604118225915,-87.2366241042439,10z?hl=en",
      "searchString": "shared-use commercial kitchen",
      "language": "en",
      "rank": 12,
      "isAdvertisement": false,
      "imageUrl": "https://lh3.googleusercontent.com/p/AF1QipP1LS_XRh4WVd16IADXpdtQdwyoR2cf5XR34FjH=w408-h544-k-no",
      "kgmid": "/g/11s9253lf0"
    },
    {
      "title": "MICKY COMPANY USA",
      "price": null,
      "categoryName": "Shared-use commercial kitchen",
      "address": "800 Enterprise Dr, Oak Brook, IL 60523",
      "neighborhood": null,
      "street": "800 Enterprise Dr",
      "city": "Oak Brook",
      "postalCode": "60523",
      "state": "Illinois",
      "countryCode": "US",
      "website": "http://mickycompanyusa.com/",
      "phone": "(773) 682-5301",
      "phoneUnformatted": "+17736825301",
      "claimThisBusiness": false,
      "location": {
        "lat": 41.847725,
        "lng": -87.939768
      },
      "permanentlyClosed": false,
      "temporarilyClosed": false,
      "placeId": "ChIJe3ncIFDND4gRLwnmfoHbtkU",
      "categories": ["Shared-use commercial kitchen"],
      "fid": "0x880fcd5020dc797b:0x45b6db817ee6092f",
      "cid": "5023443783604635951",
      "reviewsCount": 0,
      "imagesCount": 44,
      "imageCategories": [],
      "scrapedAt": "2025-07-17T00:10:50.979Z",
      "googleFoodUrl": null,
      "hotelAds": [],
      "openingHours": [
        {
          "day": "Monday",
          "hours": "9 AM to 11 PM"
        },
        {
          "day": "Tuesday",
          "hours": "9 AM to 11 PM"
        },
        {
          "day": "Wednesday",
          "hours": "9 AM to 11 PM"
        },
        {
          "day": "Thursday",
          "hours": "9 AM to 11 PM"
        },
        {
          "day": "Friday",
          "hours": "9 AM to 11 PM"
        },
        {
          "day": "Saturday",
          "hours": "Closed"
        },
        {
          "day": "Sunday",
          "hours": "Closed"
        }
      ],
      "peopleAlsoSearch": [],
      "placesTags": [],
      "reviewsTags": [],
      "additionalInfo": {
        "Accessibility": [
          {
            "Wheelchair accessible parking lot": true
          }
        ]
      },
      "gasPrices": [],
      "url": "https://www.google.com/maps/search/?api=1&query=MICKY%20COMPANY%20USA&query_place_id=ChIJe3ncIFDND4gRLwnmfoHbtkU",
      "searchPageUrl": "https://www.google.com/maps/search/shared-use%20commercial%20kitchen/@42.171604118225915,-87.2366241042439,10z?hl=en",
      "searchString": "shared-use commercial kitchen",
      "language": "en",
      "rank": 16,
      "isAdvertisement": false,
      "imageUrl": "https://lh3.googleusercontent.com/p/AF1QipOLLNOI0A16OL5NbjZWIMAYhbcz-lMjNeSrhZ8w=w408-h340-k-no",
      "kgmid": "/g/11qbfpsvhj"
    },
    {
      "title": "Nitro Family Foods (Nitro Salsa)",
      "price": null,
      "categoryName": "Shared-use commercial kitchen",
      "address": "231 E State St, O'Fallon, IL 62269",
      "neighborhood": null,
      "street": "231 E State St",
      "city": "O'Fallon",
      "postalCode": "62269",
      "state": "Illinois",
      "countryCode": "US",
      "website": "https://www.nitrosalsa.com/",
      "phone": "(270) 705-8483",
      "phoneUnformatted": "+12707058483",
      "claimThisBusiness": false,
      "location": {
        "lat": 38.5920722,
        "lng": -89.9083659
      },
      "totalScore": 5,
      "permanentlyClosed": false,
      "temporarilyClosed": false,
      "placeId": "ChIJ7xP4xzMHdogRE3SHjs_DhTI",
      "categories": ["Shared-use commercial kitchen", "Grocery store"],
      "fid": "0x88760733c7f813ef:0x3285c3cf8e877413",
      "cid": "3640531170015802387",
      "reviewsCount": 5,
      "imagesCount": 13,
      "imageCategories": [],
      "scrapedAt": "2025-07-17T00:10:52.999Z",
      "googleFoodUrl": null,
      "hotelAds": [],
      "openingHours": [
        {
          "day": "Monday",
          "hours": "1 to 5:30 PM"
        },
        {
          "day": "Tuesday",
          "hours": "Closed"
        },
        {
          "day": "Wednesday",
          "hours": "1 to 5:30 PM"
        },
        {
          "day": "Thursday",
          "hours": "Closed"
        },
        {
          "day": "Friday",
          "hours": "11 AM to 4 PM"
        },
        {
          "day": "Saturday",
          "hours": "8 AM to 12 PM"
        },
        {
          "day": "Sunday",
          "hours": "Closed"
        }
      ],
      "peopleAlsoSearch": [],
      "placesTags": [],
      "reviewsTags": [],
      "additionalInfo": {
        "Service options": [
          {
            "Delivery": true
          }
        ],
        "Accessibility": [
          {
            "Wheelchair accessible entrance": true
          },
          {
            "Wheelchair accessible parking lot": true
          }
        ],
        "Payments": [
          {
            "Credit cards": true
          },
          {
            "Debit cards": true
          },
          {
            "NFC mobile payments": true
          },
          {
            "Credit cards": true
          }
        ]
      },
      "gasPrices": [],
      "url": "https://www.google.com/maps/search/?api=1&query=Nitro%20Family%20Foods%20(Nitro%20Salsa)&query_place_id=ChIJ7xP4xzMHdogRE3SHjs_DhTI",
      "searchPageUrl": "https://www.google.com/maps/search/shared-use%20commercial%20kitchen/@38.92840282725804,-89.2664881,10z?hl=en",
      "searchString": "shared-use commercial kitchen",
      "language": "en",
      "rank": 1,
      "isAdvertisement": false,
      "imageUrl": "https://lh3.googleusercontent.com/p/AF1QipOUSLyCnNW4HsBGxQjr13yXbF4ENFAnmpeQMR_E=w426-h240-k-no",
      "kgmid": "/g/11p7970nwf"
    },
    {
      "title": "NU Tub",
      "price": null,
      "categoryName": "Bathroom remodeler",
      "address": null,
      "website": "https://www.nu-tub.net/?utm_source=google&utm_medium=organic&utm_campaign=gmb",
      "phone": "(217) 522-1850",
      "phoneUnformatted": "+12175221850",
      "claimThisBusiness": false,
      "location": {
        "lat": 40.248701,
        "lng": -89.2876325
      },
      "totalScore": 5,
      "permanentlyClosed": false,
      "temporarilyClosed": false,
      "placeId": "ChIJTZMq5so2dYgRLRss69Fo4pw",
      "categories": [
        "Bathroom remodeler",
        "Contractor",
        "Countertop contractor",
        "Service establishment",
        "Kitchen remodeler",
        "Remodeler",
        "Repair service",
        "Safety equipment supplier"
      ],
      "fid": "0x887536cae62a934d:0x9ce268d1eb2c1b2d",
      "cid": "11304713265456356141",
      "reviewsCount": 3,
      "reviewsDistribution": {
        "oneStar": 0,
        "twoStar": 0,
        "threeStar": 0,
        "fourStar": 0,
        "fiveStar": 3
      },
      "imagesCount": 40,
      "imageCategories": [],
      "scrapedAt": "2025-07-17T00:10:56.722Z",
      "googleFoodUrl": null,
      "hotelAds": [],
      "openingHours": [
        {
          "day": "Monday",
          "hours": "9 AM to 5 PM"
        },
        {
          "day": "Tuesday",
          "hours": "9 AM to 5 PM"
        },
        {
          "day": "Wednesday",
          "hours": "9 AM to 5 PM"
        },
        {
          "day": "Thursday",
          "hours": "9 AM to 5 PM"
        },
        {
          "day": "Friday",
          "hours": "9 AM to 5 PM"
        },
        {
          "day": "Saturday",
          "hours": "9 AM to 5 PM"
        },
        {
          "day": "Sunday",
          "hours": "Closed"
        }
      ],
      "peopleAlsoSearch": [],
      "placesTags": [],
      "reviewsTags": [],
      "additionalInfo": {
        "Service options": [
          {
            "Online estimates": true
          },
          {
            "English": true
          }
        ],
        "Payments": [
          {
            "Cash-only": true
          },
          {
            "Checks": true
          }
        ]
      },
      "gasPrices": [],
      "url": "https://www.google.com/maps/search/?api=1&query=NU%20Tub&query_place_id=ChIJTZMq5so2dYgRLRss69Fo4pw",
      "searchPageUrl": "https://www.google.com/maps/search/shared-use%20commercial%20kitchen/@39.73920315000001,-90.28142009787805,10z?hl=en",
      "searchString": "shared-use commercial kitchen",
      "language": "en",
      "rank": 21,
      "isAdvertisement": false,
      "imageUrl": "https://lh3.googleusercontent.com/p/AF1QipP3JfH8SNQW3HjtZEpowK0Gkd7-lKMAXOzHKJ9Y=w408-h306-k-no",
      "kgmid": "/g/1td8zwj2"
    },
    {
      "title": "Culinary Equipment Group",
      "price": null,
      "categoryName": "Corporate office",
      "address": "1775 Cortland Ct Suite A, Addison, IL 60101",
      "neighborhood": null,
      "street": "1775 Cortland Ct Suite A",
      "city": "Addison",
      "postalCode": "60101",
      "state": "Illinois",
      "countryCode": "US",
      "website": "http://culinaryequipmentgroup.com/",
      "phone": "(630) 422-7368",
      "phoneUnformatted": "+16304227368",
      "claimThisBusiness": false,
      "location": {
        "lat": 41.9099612,
        "lng": -88.0293242
      },
      "totalScore": 5,
      "permanentlyClosed": false,
      "temporarilyClosed": false,
      "placeId": "ChIJ_____08yDogRi-tTIz7svOg",
      "categories": ["Corporate office", "Shared-use commercial kitchen"],
      "fid": "0x880e324fffffffff:0xe8bcec3e2353eb8b",
      "cid": "16770538864045714315",
      "reviewsCount": 3,
      "imagesCount": 6,
      "imageCategories": [],
      "scrapedAt": "2025-07-17T00:10:57.332Z",
      "googleFoodUrl": null,
      "hotelAds": [],
      "openingHours": [
        {
          "day": "Monday",
          "hours": "7 AM to 5 PM"
        },
        {
          "day": "Tuesday",
          "hours": "7 AM to 5 PM"
        },
        {
          "day": "Wednesday",
          "hours": "7 AM to 5 PM"
        },
        {
          "day": "Thursday",
          "hours": "7 AM to 5 PM"
        },
        {
          "day": "Friday",
          "hours": "7 AM to 5 PM"
        },
        {
          "day": "Saturday",
          "hours": "Closed"
        },
        {
          "day": "Sunday",
          "hours": "Closed"
        }
      ],
      "peopleAlsoSearch": [],
      "placesTags": [],
      "reviewsTags": [],
      "additionalInfo": {
        "Service options": [
          {
            "Onsite services": true
          }
        ],
        "Accessibility": [
          {
            "Wheelchair accessible entrance": true
          },
          {
            "Wheelchair accessible parking lot": true
          }
        ],
        "Amenities": [
          {
            "Restroom": true
          }
        ],
        "Parking": [
          {
            "Free parking lot": true
          }
        ]
      },
      "gasPrices": [],
      "url": "https://www.google.com/maps/search/?api=1&query=Culinary%20Equipment%20Group&query_place_id=ChIJ_____08yDogRi-tTIz7svOg",
      "searchPageUrl": "https://www.google.com/maps/search/shared-use%20commercial%20kitchen/@42.171604118225915,-88.25155610212195,10z?hl=en",
      "searchString": "shared-use commercial kitchen",
      "language": "en",
      "rank": 20,
      "isAdvertisement": false,
      "imageUrl": "https://lh3.googleusercontent.com/p/AF1QipMFrRdxxSRx_XwnIZuKtpicv2Yo3GpR98OVzl9t=w426-h240-k-no",
      "kgmid": "/g/1vfp46zh"
    },
    {
      "title": "CFC Kitchen Rental",
      "price": null,
      "categoryName": "Caterer",
      "address": "7713 W Saint Francis Rd, Frankfort, IL 60423",
      "neighborhood": null,
      "street": "7713 W Saint Francis Rd",
      "city": "Frankfort",
      "postalCode": "60423",
      "state": "Illinois",
      "countryCode": "US",
      "website": "http://www.commercialkitchenforrent.com/crazy-fingers-kitchen-rental-924.html",
      "phone": "(630) 388-9324",
      "phoneUnformatted": "+16303889324",
      "claimThisBusiness": false,
      "location": {
        "lat": 41.5204517,
        "lng": -87.8027303
      },
      "permanentlyClosed": false,
      "temporarilyClosed": false,
      "placeId": "ChIJu4L5ckIUDogRNCojOxlWMAw",
      "categories": ["Caterer"],
      "fid": "0x880e144272f982bb:0xc3056193b232a34",
      "cid": "878296593703578164",
      "reviewsCount": 0,
      "imagesCount": 5,
      "imageCategories": [],
      "scrapedAt": "2025-07-17T00:10:59.693Z",
      "googleFoodUrl": null,
      "hotelAds": [],
      "openingHours": [
        {
          "day": "Monday",
          "hours": "12 AM to 12 PM"
        },
        {
          "day": "Tuesday",
          "hours": "12 AM to 12 PM"
        },
        {
          "day": "Wednesday",
          "hours": "12 AM to 12 PM"
        },
        {
          "day": "Thursday",
          "hours": "12 AM to 12 PM"
        },
        {
          "day": "Friday",
          "hours": "12 AM to 12 PM"
        },
        {
          "day": "Saturday",
          "hours": "12 AM to 12 PM"
        },
        {
          "day": "Sunday",
          "hours": "12 AM to 12 PM"
        }
      ],
      "peopleAlsoSearch": [],
      "placesTags": [],
      "reviewsTags": [],
      "additionalInfo": {
        "Accessibility": [
          {
            "Wheelchair accessible parking lot": true
          }
        ]
      },
      "gasPrices": [],
      "url": "https://www.google.com/maps/search/?api=1&query=CFC%20Kitchen%20Rental&query_place_id=ChIJu4L5ckIUDogRNCojOxlWMAw",
      "searchPageUrl": "https://www.google.com/maps/search/shared-use%20commercial%20kitchen/@41.360803795483946,-87.2366241042439,10z?hl=en",
      "searchString": "shared-use commercial kitchen",
      "language": "en",
      "rank": 7,
      "isAdvertisement": false,
      "imageUrl": "https://lh3.googleusercontent.com/p/AF1QipMm_VQ8ETwgZktEzvP4KWC6yfFXkr2wL3DiGwFi=w408-h306-k-no",
      "kgmid": "/g/12vrsyrkr"
    },
    {
      "title": "Farm-Fresh Enterprise Development Cooperative",
      "price": null,
      "categoryName": "Shared-use commercial kitchen",
      "address": "108 S Washington St, Mt Pulaski, IL 62548",
      "neighborhood": null,
      "street": "108 S Washington St",
      "city": "Mt Pulaski",
      "postalCode": "62548",
      "state": "Illinois",
      "countryCode": "US",
      "website": "https://www.farmfedcoop.com/",
      "claimThisBusiness": true,
      "location": {
        "lat": 40.009229,
        "lng": -89.285552
      },
      "totalScore": 5,
      "permanentlyClosed": false,
      "temporarilyClosed": false,
      "placeId": "ChIJC4xlYwAtC4gRYPhTIGmTrOc",
      "categories": ["Shared-use commercial kitchen"],
      "fid": "0x880b2d0063658c0b:0xe7ac93692053f860",
      "cid": "16693879998478809184",
      "reviewsCount": 1,
      "imagesCount": 2,
      "imageCategories": [],
      "scrapedAt": "2025-07-17T00:11:03.225Z",
      "googleFoodUrl": null,
      "hotelAds": [],
      "openingHours": [],
      "peopleAlsoSearch": [],
      "placesTags": [],
      "reviewsTags": [],
      "additionalInfo": {
        "Accessibility": [
          {
            "Wheelchair accessible entrance": true
          },
          {
            "Wheelchair accessible parking lot": true
          }
        ]
      },
      "gasPrices": [],
      "url": "https://www.google.com/maps/search/?api=1&query=Farm-Fresh%20Enterprise%20Development%20Cooperative&query_place_id=ChIJC4xlYwAtC4gRYPhTIGmTrOc",
      "searchPageUrl": "https://www.google.com/maps/search/shared-use%20commercial%20kitchen/@40.55000347274198,-89.2664881,10z?hl=en",
      "searchString": "shared-use commercial kitchen",
      "language": "en",
      "rank": 18,
      "isAdvertisement": false,
      "imageUrl": "https://streetviewpixels-pa.googleapis.com/v1/thumbnail?panoid=hMVOalkpGsKDMjGUklpW9w&cb_client=search.gws-prod.gps&w=408&h=240&yaw=272.02444&pitch=0&thumbfov=100",
      "kgmid": "/g/11x5nnxv05"
    },
    {
      "title": "SPARK Shared Kitchen",
      "price": null,
      "categoryName": "Shared-use commercial kitchen",
      "address": "1200 W 35th St, Chicago, IL 60609",
      "neighborhood": "South Side",
      "street": "1200 W 35th St",
      "city": "Chicago",
      "postalCode": "60609",
      "state": "Illinois",
      "countryCode": "US",
      "phone": "(312) 399-2084",
      "phoneUnformatted": "+13123992084",
      "claimThisBusiness": true,
      "location": {
        "lat": 41.8308937,
        "lng": -87.6563405
      },
      "permanentlyClosed": true,
      "temporarilyClosed": false,
      "placeId": "ChIJtfMPdCEtDogRuCqTPM-WNN8",
      "categories": ["Shared-use commercial kitchen"],
      "fid": "0x880e2d21740ff3b5:0xdf3496cf3c932ab8",
      "cid": "16083645986065558200",
      "reviewsCount": 0,
      "imagesCount": 1,
      "imageCategories": [],
      "scrapedAt": "2025-07-17T00:11:35.926Z",
      "googleFoodUrl": null,
      "hotelAds": [],
      "openingHours": [],
      "peopleAlsoSearch": [],
      "placesTags": [],
      "reviewsTags": [],
      "gasPrices": [],
      "url": "https://www.google.com/maps/search/?api=1&query=SPARK%20Shared%20Kitchen&query_place_id=ChIJtfMPdCEtDogRuCqTPM-WNN8",
      "searchPageUrl": "https://www.google.com/maps/search/shared-use%20commercial%20kitchen/@41.884833271935875,-87.66403491526607,13z?hl=en",
      "searchString": "shared-use commercial kitchen",
      "language": "en",
      "rank": 18,
      "isAdvertisement": false,
      "imageUrl": "https://streetviewpixels-pa.googleapis.com/v1/thumbnail?panoid=Lrjdmbm_sM0tR-v3pKozdA&cb_client=search.gws-prod.gps&w=408&h=240&yaw=352.47153&pitch=0&thumbfov=100",
      "kgmid": "/g/11mr0htnlt"
    },
    {
      "title": "Avondale's Commercial Kitchens",
      "price": null,
      "categoryName": "Shared-use commercial kitchen",
      "address": "3517 N Spaulding Ave, Chicago, IL 60618, United States",
      "neighborhood": "Avondale",
      "street": "3517 N Spaulding Ave",
      "city": "Chicago",
      "postalCode": "60618",
      "state": "Illinois",
      "countryCode": "US",
      "website": "https://bookaghostkitchentour.com/avondales-food-pick-up",
      "claimThisBusiness": true,
      "location": {
        "lat": 41.9455364,
        "lng": -87.7095431
      },
      "permanentlyClosed": true,
      "temporarilyClosed": false,
      "placeId": "ChIJcVBD8R7ND4gRXdCw8d30m10",
      "categories": ["Shared-use commercial kitchen"],
      "fid": "0x880fcd1ef1435071:0x5d9bf4ddf1b0d05d",
      "cid": "6745254100997296221",
      "reviewsCount": 0,
      "imagesCount": 1,
      "imageCategories": [],
      "scrapedAt": "2025-07-17T00:11:36.237Z",
      "googleFoodUrl": null,
      "hotelAds": [],
      "openingHours": [],
      "peopleAlsoSearch": [],
      "placesTags": [],
      "reviewsTags": [],
      "gasPrices": [],
      "url": "https://www.google.com/maps/search/?api=1&query=Avondale's%20Commercial%20Kitchens&query_place_id=ChIJcVBD8R7ND4gRXdCw8d30m10",
      "searchPageUrl": "https://www.google.com/maps/search/shared-use%20commercial%20kitchen/@41.98696601580762,-87.66403491526607,13z?hl=en",
      "searchString": "shared-use commercial kitchen",
      "language": "en",
      "rank": 15,
      "isAdvertisement": false,
      "imageUrl": "https://streetviewpixels-pa.googleapis.com/v1/thumbnail?panoid=c7yyLFYzaFXsNm6hHhs3cQ&cb_client=search.gws-prod.gps&w=408&h=240&yaw=161.30421&pitch=0&thumbfov=100",
      "kgmid": "/g/11swxhtxld"
    },
    {
      "title": "Mediterranean Eats & Treats",
      "price": null,
      "categoryName": "Shared-use commercial kitchen",
      "address": "5645 N Ashland Ave, Chicago, IL 60660, United States",
      "neighborhood": "Edgewater",
      "street": "5645 N Ashland Ave",
      "city": "Chicago",
      "postalCode": "60660",
      "state": "Illinois",
      "countryCode": "US",
      "phone": "+1 773-888-1627",
      "phoneUnformatted": "+17738881627",
      "claimThisBusiness": false,
      "location": {
        "lat": 41.9848083,
        "lng": -87.6695826
      },
      "permanentlyClosed": false,
      "temporarilyClosed": false,
      "placeId": "ChIJ_0SsuPbRD4gRvm4Okz198rk",
      "categories": ["Shared-use commercial kitchen"],
      "fid": "0x880fd1f6b8ac44ff:0xb9f27d3d930e6ebe",
      "cid": "13398909544794320574",
      "reviewsCount": 0,
      "imagesCount": 5,
      "imageCategories": [],
      "scrapedAt": "2025-07-17T00:11:37.386Z",
      "googleFoodUrl": null,
      "hotelAds": [],
      "openingHours": [
        {
          "day": "Monday",
          "hours": "Closed"
        },
        {
          "day": "Tuesday",
          "hours": "Closed"
        },
        {
          "day": "Wednesday",
          "hours": "4 to 10 PM"
        },
        {
          "day": "Thursday",
          "hours": "4 to 10 PM"
        },
        {
          "day": "Friday",
          "hours": "4 to 10 PM"
        },
        {
          "day": "Saturday",
          "hours": "4 to 10 PM"
        },
        {
          "day": "Sunday",
          "hours": "4 to 10 PM"
        }
      ],
      "peopleAlsoSearch": [],
      "placesTags": [],
      "reviewsTags": [],
      "gasPrices": [],
      "url": "https://www.google.com/maps/search/?api=1&query=Mediterranean%20Eats%20%26%20Treats&query_place_id=ChIJ_0SsuPbRD4gRvm4Okz198rk",
      "searchPageUrl": "https://www.google.com/maps/search/shared-use%20commercial%20kitchen/@41.98696601580762,-87.66403491526607,13z?hl=en",
      "searchString": "shared-use commercial kitchen",
      "language": "en",
      "rank": 23,
      "isAdvertisement": false,
      "imageUrl": "https://lh3.googleusercontent.com/p/AF1QipPV4EOBnfKYdJk-yO1-gzTGCpRBYUhYOwTIsNpJ=w408-h273-k-no",
      "kgmid": "/g/11tsmksztx"
    },
    {
      "title": "Exquisite Catering & Events",
      "price": "$$",
      "categoryName": "Caterer",
      "address": "7261 S Exchange Ave, Chicago, IL 60649",
      "neighborhood": "South Shore",
      "street": "7261 S Exchange Ave",
      "city": "Chicago",
      "postalCode": "60649",
      "state": "Illinois",
      "countryCode": "US",
      "website": "http://www.exquisitecateringevents.com/",
      "phone": "(773) 234-2889",
      "phoneUnformatted": "+17732342889",
      "claimThisBusiness": false,
      "location": {
        "lat": 41.7630156,
        "lng": -87.5634015
      },
      "totalScore": 4.6,
      "permanentlyClosed": false,
      "temporarilyClosed": false,
      "placeId": "ChIJwWUiXi4pDogRHSeC3xGnvnI",
      "categories": [
        "Caterer",
        "Cooking class",
        "Shared-use commercial kitchen"
      ],
      "fid": "0x880e292e5e2265c1:0x72bea711df82271d",
      "cid": "8268229661104940829",
      "reviewsCount": 76,
      "imagesCount": 78,
      "imageCategories": [],
      "scrapedAt": "2025-07-17T00:11:39.827Z",
      "googleFoodUrl": null,
      "hotelAds": [],
      "openingHours": [
        {
          "day": "Monday",
          "hours": "Closed"
        },
        {
          "day": "Tuesday",
          "hours": "10 AM to 5 PM"
        },
        {
          "day": "Wednesday",
          "hours": "10 AM to 5 PM"
        },
        {
          "day": "Thursday",
          "hours": "10 AM to 5 PM"
        },
        {
          "day": "Friday",
          "hours": "10 AM to 3 PM"
        },
        {
          "day": "Saturday",
          "hours": "Closed"
        },
        {
          "day": "Sunday",
          "hours": "Closed"
        }
      ],
      "peopleAlsoSearch": [],
      "placesTags": [],
      "reviewsTags": [],
      "additionalInfo": {
        "From the business": [
          {
            "Identifies as Black-owned": true
          },
          {
            "Identifies as women-owned": true
          }
        ],
        "Service options": [
          {
            "No-contact delivery": true
          },
          {
            "Delivery": true
          },
          {
            "Takeout": true
          }
        ],
        "Accessibility": [
          {
            "Wheelchair accessible parking lot": true
          },
          {
            "Wheelchair accessible restroom": false
          },
          {
            "Wheelchair accessible seating": false
          }
        ],
        "Payments": [
          {
            "Credit cards": true
          },
          {
            "Debit cards": true
          },
          {
            "NFC mobile payments": true
          },
          {
            "Credit cards": true
          }
        ]
      },
      "gasPrices": [],
      "url": "https://www.google.com/maps/search/?api=1&query=Exquisite%20Catering%20%26%20Events&query_place_id=ChIJwWUiXi4pDogRHSeC3xGnvnI",
      "searchPageUrl": "https://www.google.com/maps/search/shared-use%20commercial%20kitchen/@41.78270052806413,-87.5273623457982,13z?hl=en",
      "searchString": "shared-use commercial kitchen",
      "language": "en",
      "rank": 12,
      "isAdvertisement": false,
      "imageUrl": "https://lh3.googleusercontent.com/gps-cs-s/AC9h4noNDR3rbQm-IGjchGjIUS4Z3UBTeePbjwxqDxLnuEEr9AZ0fMPysGEh-JLzDg9egipkwGqd84fCBVRmnpSmCqRPCM3uTraPaRBBYYk2U_SBlFbaFSugwsqVkZWQYr4ubZzS4TzscA=w408-h271-k-no",
      "kgmid": "/g/11fy_dy28x"
    },
    {
      "title": "Shared Comercial Kitchen",
      "price": null,
      "categoryName": "Shared-use commercial kitchen",
      "address": "1943 W 51st St, Chicago, IL 60609",
      "neighborhood": "New City",
      "street": "1943 W 51st St",
      "city": "Chicago",
      "postalCode": "60609",
      "state": "Illinois",
      "countryCode": "US",
      "phone": "(773) 647-0925",
      "phoneUnformatted": "+17736470925",
      "claimThisBusiness": false,
      "location": {
        "lat": 41.8010871,
        "lng": -87.6737241
      },
      "permanentlyClosed": true,
      "temporarilyClosed": false,
      "placeId": "ChIJHXGCTxEvDogRUnLXfMLZxLo",
      "categories": ["Shared-use commercial kitchen"],
      "fid": "0x880e2f114f82711d:0xbac4d9c27cd77252",
      "cid": "13458121015831261778",
      "reviewsCount": 0,
      "imagesCount": 10,
      "imageCategories": [],
      "scrapedAt": "2025-07-17T00:11:39.827Z",
      "googleFoodUrl": null,
      "hotelAds": [],
      "openingHours": [],
      "peopleAlsoSearch": [],
      "placesTags": [],
      "reviewsTags": [],
      "gasPrices": [],
      "url": "https://www.google.com/maps/search/?api=1&query=Shared%20Comercial%20Kitchen&query_place_id=ChIJHXGCTxEvDogRUnLXfMLZxLo",
      "searchPageUrl": "https://www.google.com/maps/search/shared-use%20commercial%20kitchen/@41.78270052806413,-87.5273623457982,13z?hl=en",
      "searchString": "shared-use commercial kitchen",
      "language": "en",
      "rank": 16,
      "isAdvertisement": false,
      "imageUrl": "https://lh3.googleusercontent.com/p/AF1QipN1yaJqNjqnxp5oqK8bHDEL-iWzKBADb_rMpSB-=w445-h240-k-no",
      "kgmid": "/g/11spwfyk39"
    }
  ]
}
