{
  "state": "CA",
  "city": "San Jose",
  "kitchens": [
    {
      "title": "Amanecer Kitchen Space",
      "price": null,
      "categoryName": "Shared-use commercial kitchen",
      "address": "1605 Almaden Rd, San Jose, CA 95125",
      "neighborhood": "South San Jose",
      "street": "1605 Almaden Rd",
      "city": "San Jose",
      "postalCode": "95125",
      "state": "California",
      "countryCode": "US",
      "phone": "(408) 770-6404",
      "phoneUnformatted": "+14087706404",
      "claimThisBusiness": false,
      "location": {
        "lat": 37.3078308,
        "lng": -121.8791195
      },
      "totalScore": 5,
      "permanentlyClosed": false,
      "temporarilyClosed": false,
      "placeId": "ChIJZU_6TmozjoAR7bNBqv4nr8M",
      "categories": [
        "Shared-use commercial kitchen"
      ],
      "fid": "0x808e336a4efa4f65:0xc3af27feaa41b3ed",
      "cid": "14100532933051921389",
      "reviewsCount": 2,
      "imagesCount": 4,
      "imageCategories": [],
      "scrapedAt": "2025-07-16T13:59:16.825Z",
      "googleFoodUrl": null,
      "hotelAds": [],
      "openingHours": [
        {
          "day": "Monday",
          "hours": "Open 24 hours"
        },
        {
          "day": "Tuesday",
          "hours": "Open 24 hours"
        },
        {
          "day": "Wednesday",
          "hours": "Open 24 hours"
        },
        {
          "day": "Thursday",
          "hours": "Open 24 hours"
        },
        {
          "day": "Friday",
          "hours": "Open 24 hours"
        },
        {
          "day": "Saturday",
          "hours": "Open 24 hours"
        },
        {
          "day": "Sunday",
          "hours": "Open 24 hours"
        }
      ],
      "peopleAlsoSearch": [],
      "placesTags": [],
      "reviewsTags": [],
      "additionalInfo": {
        "Accessibility": [
          {
            "Wheelchair accessible entrance": true
          },
          {
            "Wheelchair accessible parking lot": true
          }
        ]
      },
      "gasPrices": [],
      "url": "https://www.google.com/maps/search/?api=1&query=Amanecer%20Kitchen%20Space&query_place_id=ChIJZU_6TmozjoAR7bNBqv4nr8M",
      "searchPageUrl": "https://www.google.com/maps/search/shared-use%20commercial%20kitchen/@37.24151580868085,-122.0213137957798,13z?hl=en",
      "searchString": "shared-use commercial kitchen",
      "language": "en",
      "rank": 1,
      "isAdvertisement": false,
      "imageUrl": "https://lh3.googleusercontent.com/gps-cs-s/AC9h4nqilPD4agIM8_vNIs8mrvfQFTSBgL40QQpD_Q5aSjSGhTl_BFhk-6K8yjwAE6cIRKeNDSPybDSv7AfNjXwB8d8J2JIQTiEE2lKUEDwT_VUcJ90X9zyfycXxTmRnw4-pedqiNpvZ=w408-h725-k-no",
      "kgmid": "/g/11l5hjtn99"
    },
    {
      "title": "iKitchens",
      "price": null,
      "categoryName": "Shared-use commercial kitchen",
      "address": "326 Commercial St, San Jose, CA 95112",
      "neighborhood": "Central San Jose",
      "street": "326 Commercial St",
      "city": "San Jose",
      "postalCode": "95112",
      "state": "California",
      "countryCode": "US",
      "website": "https://ikitchens.biz/",
      "phone": "(408) 816-7854",
      "phoneUnformatted": "+14088167854",
      "claimThisBusiness": false,
      "location": {
        "lat": 37.3606854,
        "lng": -121.899202
      },
      "totalScore": 4.2,
      "permanentlyClosed": false,
      "temporarilyClosed": false,
      "placeId": "ChIJkV6j0HjMj4ARMpeaB_OOpNA",
      "categories": [
        "Shared-use commercial kitchen",
        "Food service",
        "Office space rental agency"
      ],
      "fid": "0x808fcc78d0a35e91:0xd0a48ef3079a9732",
      "cid": "15034298630525327154",
      "reviewsCount": 41,
      "imagesCount": 27,
      "imageCategories": [],
      "scrapedAt": "2025-07-16T13:59:16.826Z",
      "googleFoodUrl": null,
      "hotelAds": [],
      "openingHours": [
        {
          "day": "Monday",
          "hours": "9 AM to 5 PM"
        },
        {
          "day": "Tuesday",
          "hours": "9 AM to 5 PM"
        },
        {
          "day": "Wednesday",
          "hours": "9 AM to 5 PM"
        },
        {
          "day": "Thursday",
          "hours": "9 AM to 5 PM"
        },
        {
          "day": "Friday",
          "hours": "9 AM to 5 PM"
        },
        {
          "day": "Saturday",
          "hours": "9 AM to 3 PM"
        },
        {
          "day": "Sunday",
          "hours": "Closed"
        }
      ],
      "peopleAlsoSearch": [],
      "placesTags": [],
      "reviewsTags": [],
      "additionalInfo": {
        "Service options": [
          {
            "Delivery": true
          }
        ],
        "Accessibility": [
          {
            "Wheelchair accessible entrance": true
          },
          {
            "Wheelchair accessible parking lot": true
          }
        ],
        "Payments": [
          {
            "Debit cards": true
          },
          {
            "Credit cards": true
          }
        ]
      },
      "gasPrices": [],
      "url": "https://www.google.com/maps/search/?api=1&query=iKitchens&query_place_id=ChIJkV6j0HjMj4ARMpeaB_OOpNA",
      "searchPageUrl": "https://www.google.com/maps/search/shared-use%20commercial%20kitchen/@37.24151580868085,-122.0213137957798,13z?hl=en",
      "searchString": "shared-use commercial kitchen",
      "language": "en",
      "rank": 2,
      "isAdvertisement": false,
      "imageUrl": "https://lh3.googleusercontent.com/p/AF1QipOnxrMg7s1e58_dFU4ymZtfbvp6mBH-MQVFAY0h=w408-h272-k-no",
      "kgmid": "/g/1v_ncrg1"
    },
    {
      "title": "Silicon Valley Kitchen Rental",
      "price": null,
      "categoryName": "Coworking space",
      "address": "4580 Almaden Expy unit 103, San Jose, CA 95118",
      "neighborhood": "South San Jose",
      "street": "4580 Almaden Expy unit 103",
      "city": "San Jose",
      "postalCode": "95118",
      "state": "California",
      "countryCode": "US",
      "website": "http://www.siliconvalleykitchenrental.com/",
      "phone": "(408) 728-1358",
      "phoneUnformatted": "+14087281358",
      "claimThisBusiness": false,
      "location": {
        "lat": 37.2636971,
        "lng": -121.8762736
      },
      "totalScore": 5,
      "permanentlyClosed": false,
      "temporarilyClosed": false,
      "placeId": "ChIJxwd7MiczjoARJAk0dan_ds0",
      "categories": [
        "Coworking space"
      ],
      "fid": "0x808e3327327b07c7:0xcd76ffa975340924",
      "cid": "14805301928307984676",
      "reviewsCount": 1,
      "imagesCount": 2,
      "imageCategories": [],
      "scrapedAt": "2025-07-16T13:59:16.827Z",
      "googleFoodUrl": null,
      "hotelAds": [],
      "openingHours": [
        {
          "day": "Monday",
          "hours": "Open 24 hours"
        },
        {
          "day": "Tuesday",
          "hours": "Open 24 hours"
        },
        {
          "day": "Wednesday",
          "hours": "Open 24 hours"
        },
        {
          "day": "Thursday",
          "hours": "Open 24 hours"
        },
        {
          "day": "Friday",
          "hours": "Open 24 hours"
        },
        {
          "day": "Saturday",
          "hours": "Open 24 hours"
        },
        {
          "day": "Sunday",
          "hours": "Open 24 hours"
        }
      ],
      "peopleAlsoSearch": [],
      "placesTags": [],
      "reviewsTags": [],
      "additionalInfo": {
        "Accessibility": [
          {
            "Wheelchair accessible entrance": true
          },
          {
            "Wheelchair accessible parking lot": true
          }
        ]
      },
      "gasPrices": [],
      "url": "https://www.google.com/maps/search/?api=1&query=Silicon%20Valley%20Kitchen%20Rental&query_place_id=ChIJxwd7MiczjoARJAk0dan_ds0",
      "searchPageUrl": "https://www.google.com/maps/search/shared-use%20commercial%20kitchen/@37.24151580868085,-122.0213137957798,13z?hl=en",
      "searchString": "shared-use commercial kitchen",
      "language": "en",
      "rank": 4,
      "isAdvertisement": false,
      "imageUrl": "https://streetviewpixels-pa.googleapis.com/v1/thumbnail?panoid=ffb4P0y_wW5Lm1wNon293g&cb_client=search.gws-prod.gps&w=408&h=240&yaw=134.93733&pitch=0&thumbfov=100",
      "kgmid": "/g/11hv90m3x8"
    },
    {
      "title": "Culinary Block Rental Kitchen",
      "price": null,
      "categoryName": "Shared-use commercial kitchen",
      "address": "1901 Las Plumas Ave STE 30, San Jose, CA 95133",
      "neighborhood": "Las Plumas",
      "street": "1901 Las Plumas Ave STE 30",
      "city": "San Jose",
      "postalCode": "95133",
      "state": "California",
      "countryCode": "US",
      "website": "https://www.culinaryblock.com/",
      "phone": "(408) 459-9459",
      "phoneUnformatted": "+14084599459",
      "claimThisBusiness": false,
      "location": {
        "lat": 37.3659413,
        "lng": -121.8620015
      },
      "totalScore": 4.3,
      "permanentlyClosed": false,
      "temporarilyClosed": false,
      "placeId": "ChIJtbJ3ohHNj4ARWvqRp16OaBE",
      "categories": [
        "Shared-use commercial kitchen"
      ],
      "fid": "0x808fcd11a277b2b5:0x11688e5ea791fa5a",
      "cid": "1254409033412115034",
      "reviewsCount": 3,
      "imagesCount": 10,
      "imageCategories": [],
      "scrapedAt": "2025-07-16T13:59:16.827Z",
      "googleFoodUrl": null,
      "hotelAds": [],
      "openingHours": [
        {
          "day": "Monday",
          "hours": "11 AM to 8 PM"
        },
        {
          "day": "Tuesday",
          "hours": "11 AM to 8 PM"
        },
        {
          "day": "Wednesday",
          "hours": "11 AM to 8 PM"
        },
        {
          "day": "Thursday",
          "hours": "11 AM to 8 PM"
        },
        {
          "day": "Friday",
          "hours": "11 AM to 8 PM"
        },
        {
          "day": "Saturday",
          "hours": "11 AM to 8 PM"
        },
        {
          "day": "Sunday",
          "hours": "11 AM to 8 PM"
        }
      ],
      "peopleAlsoSearch": [],
      "placesTags": [],
      "reviewsTags": [],
      "additionalInfo": {
        "From the business": [
          {
            "Identifies as Asian-owned": true
          },
          {
            "Identifies as women-owned": true
          }
        ],
        "Accessibility": [
          {
            "Wheelchair accessible entrance": true
          },
          {
            "Wheelchair accessible parking lot": true
          }
        ]
      },
      "gasPrices": [],
      "url": "https://www.google.com/maps/search/?api=1&query=Culinary%20Block%20Rental%20Kitchen&query_place_id=ChIJtbJ3ohHNj4ARWvqRp16OaBE",
      "searchPageUrl": "https://www.google.com/maps/search/shared-use%20commercial%20kitchen/@37.24151580868085,-122.0213137957798,13z?hl=en",
      "searchString": "shared-use commercial kitchen",
      "language": "en",
      "rank": 5,
      "isAdvertisement": false,
      "imageUrl": "https://lh3.googleusercontent.com/gps-cs-s/AC9h4nr0-rYv35pRc09SHNV3JVMSYtwcN7rku07lYI74DhCG1T3YSPhdCS4mQmA22bSB02Ji3xBYLHxDslqoov2aTPJrYjCBBxLYI_D8J0beHupuiDBUt3ohbWWlXJ5VpbBNcmReTrey=w426-h240-k-no",
      "kgmid": "/g/11rrsfgzq9"
    },
    {
      "title": "The Base",
      "price": null,
      "categoryName": "Shared-use commercial kitchen",
      "address": "478 Stockton Ave, San Jose, CA 95126",
      "neighborhood": "Central San Jose",
      "street": "478 Stockton Ave",
      "city": "San Jose",
      "postalCode": "95126",
      "state": "California",
      "countryCode": "US",
      "phone": "(408) 314-4823",
      "phoneUnformatted": "+14083144823",
      "claimThisBusiness": false,
      "location": {
        "lat": 37.3377065,
        "lng": -121.9092197
      },
      "totalScore": 5,
      "permanentlyClosed": false,
      "temporarilyClosed": false,
      "placeId": "ChIJI_cXei3Lj4ARjhEG3ctYNX8",
      "categories": [
        "Shared-use commercial kitchen"
      ],
      "fid": "0x808fcb2d7a17f723:0x7f3558cbdd06118e",
      "cid": "9166330249192280462",
      "reviewsCount": 1,
      "imagesCount": 4,
      "imageCategories": [],
      "scrapedAt": "2025-07-16T13:59:16.828Z",
      "googleFoodUrl": null,
      "hotelAds": [],
      "openingHours": [
        {
          "day": "Monday",
          "hours": "Open 24 hours"
        },
        {
          "day": "Tuesday",
          "hours": "Open 24 hours"
        },
        {
          "day": "Wednesday",
          "hours": "Open 24 hours"
        },
        {
          "day": "Thursday",
          "hours": "Open 24 hours"
        },
        {
          "day": "Friday",
          "hours": "Open 24 hours"
        },
        {
          "day": "Saturday",
          "hours": "Open 24 hours"
        },
        {
          "day": "Sunday",
          "hours": "Open 24 hours"
        }
      ],
      "peopleAlsoSearch": [],
      "placesTags": [],
      "reviewsTags": [],
      "additionalInfo": {
        "Accessibility": [
          {
            "Wheelchair accessible entrance": true
          },
          {
            "Wheelchair accessible parking lot": true
          }
        ]
      },
      "gasPrices": [],
      "url": "https://www.google.com/maps/search/?api=1&query=The%20Base&query_place_id=ChIJI_cXei3Lj4ARjhEG3ctYNX8",
      "searchPageUrl": "https://www.google.com/maps/search/shared-use%20commercial%20kitchen/@37.24151580868085,-122.0213137957798,13z?hl=en",
      "searchString": "shared-use commercial kitchen",
      "language": "en",
      "rank": 10,
      "isAdvertisement": false,
      "imageUrl": "https://lh3.googleusercontent.com/gps-cs-s/AC9h4nqYwN6-SOE1-PkFBUO9MJjmu5K5_SiAGii6PJbcHC4b8GsooF7SsX99QFuLccFSCMkp8EZBs0bE4W-sHKUJWkss2wPFB9LZxlFo315qlGMTG7mYSodzexG9RWO_kON7NuPLXQew=w408-h306-k-no",
      "kgmid": "/g/11w_zmp69y"
    },
    {
      "title": "ChefCentury",
      "price": null,
      "categoryName": "Caterer",
      "address": "1505 S Winchester Blvd, San Jose, CA 95128",
      "neighborhood": "Cadillac Winchester",
      "street": "1505 S Winchester Blvd",
      "city": "San Jose",
      "postalCode": "95128",
      "state": "California",
      "countryCode": "US",
      "website": "https://www.chefcentury.com/",
      "phone": "(408) 709-5877",
      "phoneUnformatted": "+14087095877",
      "claimThisBusiness": false,
      "location": {
        "lat": 37.2965992,
        "lng": -121.9504662
      },
      "totalScore": 4,
      "permanentlyClosed": false,
      "temporarilyClosed": false,
      "placeId": "ChIJFc7qZKc1joAR9FSozEtRUvg",
      "categories": [
        "Caterer",
        "Catering food and drink supplier",
        "Delivery Restaurant"
      ],
      "fid": "0x808e35a764eace15:0xf852514bcca854f4",
      "cid": "17893453655494382836",
      "reviewsCount": 1,
      "imagesCount": 2,
      "imageCategories": [],
      "scrapedAt": "2025-07-16T13:59:16.828Z",
      "googleFoodUrl": null,
      "hotelAds": [],
      "openingHours": [
        {
          "day": "Monday",
          "hours": "10 AM to 3 PM"
        },
        {
          "day": "Tuesday",
          "hours": "10 AM to 3 PM"
        },
        {
          "day": "Wednesday",
          "hours": "10 AM to 3 PM"
        },
        {
          "day": "Thursday",
          "hours": "10 AM to 3 PM"
        },
        {
          "day": "Friday",
          "hours": "10 AM to 3 PM"
        },
        {
          "day": "Saturday",
          "hours": "Closed"
        },
        {
          "day": "Sunday",
          "hours": "Closed"
        }
      ],
      "peopleAlsoSearch": [],
      "placesTags": [],
      "reviewsTags": [],
      "additionalInfo": {
        "Service options": [
          {
            "No-contact delivery": true
          },
          {
            "Delivery": true
          },
          {
            "Takeout": true
          }
        ],
        "Accessibility": [
          {
            "Wheelchair accessible entrance": true
          },
          {
            "Wheelchair accessible parking lot": true
          }
        ],
        "Payments": [
          {
            "Credit cards": true
          }
        ]
      },
      "gasPrices": [],
      "url": "https://www.google.com/maps/search/?api=1&query=ChefCentury&query_place_id=ChIJFc7qZKc1joAR9FSozEtRUvg",
      "searchPageUrl": "https://www.google.com/maps/search/shared-use%20commercial%20kitchen/@37.24151580868085,-122.0213137957798,13z?hl=en",
      "searchString": "shared-use commercial kitchen",
      "language": "en",
      "rank": 12,
      "isAdvertisement": false,
      "imageUrl": "https://lh3.googleusercontent.com/gps-cs-s/AC9h4npWXnTDDh4C7o1DIPmUI00rlmKH4lBzGwp2XEcO17KaefZ7o3ZSoyUNX7vS4UrEiEZLGWDw6UfdR59fkmk0PhCC--qthPrThfFHLjEPO3an6xK2-NAQageJCz3aGaGPyGKzzq9r=w408-h306-k-no",
      "kgmid": "/g/11qn9h_48b"
    },
    {
      "title": "Silk Road Kitchen",
      "price": null,
      "categoryName": "Shared-use commercial kitchen",
      "address": "82 E Santa Clara St, San Jose, CA 95113",
      "neighborhood": "Central San Jose",
      "street": "82 E Santa Clara St",
      "city": "San Jose",
      "postalCode": "95113",
      "state": "California",
      "countryCode": "US",
      "website": "https://www.silkroad.kitchen/",
      "claimThisBusiness": false,
      "location": {
        "lat": 37.3368979,
        "lng": -121.8886885
      },
      "permanentlyClosed": false,
      "temporarilyClosed": true,
      "placeId": "ChIJgff0YM_Nj4ARjmQuRrS3FYQ",
      "categories": [
        "Shared-use commercial kitchen"
      ],
      "fid": "0x808fcdcf60f4f781:0x8415b7b4462e648e",
      "cid": "9517715372416853134",
      "reviewsCount": 0,
      "imagesCount": 4,
      "imageCategories": [],
      "scrapedAt": "2025-07-16T13:59:29.774Z",
      "googleFoodUrl": null,
      "hotelAds": [],
      "openingHours": [],
      "peopleAlsoSearch": [],
      "placesTags": [],
      "reviewsTags": [],
      "additionalInfo": {
        "Service options": [
          {
            "Delivery": true
          }
        ]
      },
      "gasPrices": [],
      "url": "https://www.google.com/maps/search/?api=1&query=Silk%20Road%20Kitchen&query_place_id=ChIJgff0YM_Nj4ARjmQuRrS3FYQ",
      "searchPageUrl": "https://www.google.com/maps/search/shared-use%20commercial%20kitchen/@37.350633491319144,-121.8844615319266,13z?hl=en",
      "searchString": "shared-use commercial kitchen",
      "language": "en",
      "rank": 8,
      "isAdvertisement": false,
      "imageUrl": "https://lh3.googleusercontent.com/p/AF1QipMEbnXDF_fYoU2mb6dmnuNcEIhkI_qpJQiIO0Od=w408-h255-k-no",
      "kgmid": "/g/11vds1yfpk"
    },
    {
      "title": "1505 Kitchen Space",
      "price": null,
      "categoryName": "Shared-use commercial kitchen",
      "address": "1505 S Winchester Blvd, San Jose, CA 95128, United States",
      "neighborhood": "Cadillac Winchester",
      "street": "1505 S Winchester Blvd",
      "city": "San Jose",
      "postalCode": "95128",
      "state": "California",
      "countryCode": "US",
      "phone": "+1 408-799-8011",
      "phoneUnformatted": "+14087998011",
      "claimThisBusiness": false,
      "location": {
        "lat": 37.2966865,
        "lng": -121.9504884
      },
      "totalScore": 4.9,
      "permanentlyClosed": true,
      "temporarilyClosed": false,
      "placeId": "ChIJVVVReSk1joARljTfUUCQVZE",
      "categories": [
        "Shared-use commercial kitchen",
        "Catering food and drink supplier",
        "Caterer",
        "Mobile caterer"
      ],
      "fid": "0x808e352979515555:0x9155904051df3496",
      "cid": "10472435114445845654",
      "reviewsCount": 9,
      "imagesCount": 3,
      "imageCategories": [],
      "scrapedAt": "2025-07-16T13:59:46.332Z",
      "googleFoodUrl": null,
      "hotelAds": [],
      "openingHours": [],
      "peopleAlsoSearch": [],
      "placesTags": [],
      "reviewsTags": [],
      "gasPrices": [],
      "url": "https://www.google.com/maps/search/?api=1&query=1505%20Kitchen%20Space&query_place_id=ChIJVVVReSk1joARljTfUUCQVZE",
      "searchPageUrl": "https://www.google.com/maps/search/shared-use%20commercial%20kitchen/@37.350633491319144,-122.0213137957798,13z?hl=en",
      "searchString": "shared-use commercial kitchen",
      "language": "en",
      "rank": 17,
      "isAdvertisement": false,
      "imageUrl": "https://lh3.googleusercontent.com/p/AF1QipNNKJlgtxe7nqKo8l7855sKPqHT4p_k-IISIDaF=w408-h408-k-no",
      "kgmid": "/g/11h4cgktny"
    },
    {
      "title": "Las Minas Guatemalan Cuisine",
      "price": null,
      "categoryName": "Shared-use commercial kitchen",
      "address": "326 Commercial St, San Jose, CA 95112",
      "neighborhood": "Central San Jose",
      "street": "326 Commercial St",
      "city": "San Jose",
      "postalCode": "95112",
      "state": "California",
      "countryCode": "US",
      "website": "https://www.lasminasguatemalancuisine.com/?utm_source=google&utm_medium=wix_google_business_profile&utm_campaign=2132602203804134276",
      "phone": "(650) 720-8742",
      "phoneUnformatted": "+16507208742",
      "claimThisBusiness": false,
      "location": {
        "lat": 37.3607536,
        "lng": -121.8991866
      },
      "totalScore": 5,
      "permanentlyClosed": false,
      "temporarilyClosed": true,
      "placeId": "ChIJxZMtpoXNj4ARvsCvz6o9I8c",
      "categories": [
        "Shared-use commercial kitchen"
      ],
      "fid": "0x808fcd85a62d93c5:0xc7233daacfafc0be",
      "cid": "14349380641570668734",
      "reviewsCount": 1,
      "imagesCount": 9,
      "imageCategories": [],
      "scrapedAt": "2025-07-16T13:59:47.333Z",
      "googleFoodUrl": null,
      "hotelAds": [],
      "openingHours": [],
      "peopleAlsoSearch": [],
      "placesTags": [],
      "reviewsTags": [],
      "gasPrices": [],
      "url": "https://www.google.com/maps/search/?api=1&query=Las%20Minas%20Guatemalan%20Cuisine&query_place_id=ChIJxZMtpoXNj4ARvsCvz6o9I8c",
      "searchPageUrl": "https://www.google.com/maps/search/shared-use%20commercial%20kitchen/@37.3078308,-121.8791195,13.672438630988216z?hl=en",
      "searchString": "shared-use commercial kitchen",
      "language": "en",
      "rank": 18,
      "isAdvertisement": false,
      "imageUrl": "https://lh3.googleusercontent.com/p/AF1QipP7CRDtXuuP19hvASJK18QOqHpw0xmMlqgPJ7rM=w408-h272-k-no",
      "kgmid": "/g/11w428b60l"
    },
    {
      "title": "Kitchen by the Hour",
      "price": null,
      "categoryName": "Shared-use commercial kitchen",
      "address": "2365 Tripaldi Way, Hayward, CA 94545",
      "neighborhood": null,
      "street": "2365 Tripaldi Way",
      "city": "Hayward",
      "postalCode": "94545",
      "state": "California",
      "countryCode": "US",
      "website": "http://www.kitchenbythehour.com/",
      "phone": "(408) 673-8227",
      "phoneUnformatted": "+14086738227",
      "claimThisBusiness": false,
      "location": {
        "lat": 37.6147636,
        "lng": -122.0834294
      },
      "totalScore": 4.9,
      "permanentlyClosed": false,
      "temporarilyClosed": false,
      "placeId": "ChIJL5gvLyiUj4ARXqM9z2iKlXs",
      "categories": [
        "Shared-use commercial kitchen",
        "Coworking space",
        "Self-catering accommodation"
      ],
      "fid": "0x808f94282f2f982f:0x7b958a68cf3da35e",
      "cid": "8905176020953178974",
      "reviewsCount": 21,
      "imagesCount": 15,
      "imageCategories": [],
      "scrapedAt": "2025-07-16T14:05:01.129Z",
      "googleFoodUrl": null,
      "hotelAds": [],
      "openingHours": [],
      "peopleAlsoSearch": [],
      "placesTags": [],
      "reviewsTags": [],
      "gasPrices": [],
      "url": "https://www.google.com/maps/search/?api=1&query=Kitchen%20by%20the%20Hour&query_place_id=ChIJL5gvLyiUj4ARXqM9z2iKlXs",
      "searchPageUrl": "https://www.google.com/maps/search/shared-use%20commercial%20kitchen/@37.56428410129386,-122.06905444999998,14z?hl=en",
      "searchString": "shared-use commercial kitchen",
      "language": "en",
      "rank": 1,
      "isAdvertisement": false,
      "imageUrl": "https://lh3.googleusercontent.com/gps-cs-s/AC9h4nr5iP4B-pQj-k5ckU7pi_GwxN8_SiW1qFWwKnbR_0RO3DKHhh-5zGhLeHsyDGJm6S-l074Cs6Pggu6RrUyuaNiwqtoWdCx-K8Q__iee7269WtylvGj57XUXVl2WTyymyuNPWPTgTw=w408-h544-k-no",
      "kgmid": "/g/1v_s6350"
    },
    {
      "title": "A Street Kitchen",
      "price": null,
      "categoryName": "Shared-use commercial kitchen",
      "address": "974 A St, Hayward, CA 94541",
      "neighborhood": null,
      "street": "974 A St",
      "city": "Hayward",
      "postalCode": "94541",
      "state": "California",
      "countryCode": "US",
      "website": "https://astreetkitchen.com/",
      "claimThisBusiness": false,
      "location": {
        "lat": 37.6740224,
        "lng": -122.0842633
      },
      "totalScore": 5,
      "permanentlyClosed": false,
      "temporarilyClosed": false,
      "placeId": "ChIJv8WmJgCRj4ARedSs4rTX-Zs",
      "categories": [
        "Shared-use commercial kitchen"
      ],
      "fid": "0x808f910026a6c5bf:0x9bf9d7b4e2acd479",
      "cid": "11239251516976845945",
      "reviewsCount": 6,
      "imagesCount": 8,
      "imageCategories": [],
      "scrapedAt": "2025-07-16T14:05:01.130Z",
      "googleFoodUrl": null,
      "hotelAds": [],
      "openingHours": [],
      "peopleAlsoSearch": [],
      "placesTags": [],
      "reviewsTags": [],
      "additionalInfo": {
        "Accessibility": [
          {
            "Wheelchair accessible entrance": true
          },
          {
            "Wheelchair accessible parking lot": true
          }
        ]
      },
      "gasPrices": [],
      "url": "https://www.google.com/maps/search/?api=1&query=A%20Street%20Kitchen&query_place_id=ChIJv8WmJgCRj4ARedSs4rTX-Zs",
      "searchPageUrl": "https://www.google.com/maps/search/shared-use%20commercial%20kitchen/@37.56428410129386,-122.06905444999998,14z?hl=en",
      "searchString": "shared-use commercial kitchen",
      "language": "en",
      "rank": 3,
      "isAdvertisement": false,
      "imageUrl": "https://lh3.googleusercontent.com/p/AF1QipMLUu_J-w4QD8FWyaekl8-tDTs8xEzxpf93DL08=w408-h544-k-no",
      "kgmid": "/g/11vrvhqlsb"
    }
  ],
  "insights": {
    "residents": {
      "count": "1M",
      "description": "San Jose's diverse population creates exceptional opportunities for food entrepreneurs serving multicultural communities and busy families.\nThis demographic diversity reflects modern America's changing food preferences, with residents increasingly seeking authentic cuisines and convenient meal solutions.\nResearch shows that 60% of San Jose consumers order takeout or delivery at least once a week, driven by busy lifestyles and dual-income households.\nThe city's residential patterns create distinct neighborhoods where food delivery thrives, especially during evening hours when families need convenient dinner solutions.\nYoung professionals and established families both value high-quality, convenient meal options that save time while providing variety and authentic flavors.\nHome ownership rates indicate stable communities with established dining habits and disposable income for food services.\nThe growing preference for delivery over dining out, particularly among suburban families, creates consistent demand for ghost kitchen and meal delivery concepts.",
      "driveTime": "15 min",
      "homeowners": "45%",
      "medianHomeValue": "$185K",
      "diversity": "50+",
      "hispanicPopulation": "25%"
    },
    "workforce": {
      "count": "650K",
      "description": "San Jose's dynamic workforce drives significant demand for convenient, high-quality meal options during busy workdays and corporate meetings.\nThe concentration of professional services, healthcare, and business operations creates a large population of time-conscious workers who value meal delivery services.\nAverage commute times and office-based work schedules create predictable lunch and dinner rush periods that food businesses can optimize around.\nThe rise of remote and hybrid work arrangements has expanded delivery opportunities to residential areas during traditional business hours.\nCorporate culture increasingly includes food benefits and catered meetings, providing opportunities for bulk catering and corporate accounts.\nBusiness lunch meetings remain important for relationship building, creating demand for professional-quality group meal orders and presentation-ready packaging.\nHigher-income professionals represent a premium market segment willing to pay for convenience, quality ingredients, and unique culinary experiences.",
      "driveTime": "15 min",
      "workFromHome": "12%",
      "averageCommute": "25 min",
      "highIncome": "22%",
      "businessLunch": "65%"
    },
    "students": {
      "count": "450K",
      "description": "San Jose's educated population and student community drive innovation in food trends and represent early adopters of new delivery platforms and concepts.\nCollege students and recent graduates combine adventurous food preferences with strong digital engagement habits and regular delivery app usage.\nLocal colleges and universities creates a constant influx of young adults who view food delivery as an essential part of their lifestyle rather than a luxury service.\nStudents and young professionals often work irregular hours, creating demand for late-night delivery options and weekend meal services.\nThis educated demographic actively seeks out diverse cuisines, sustainable food options, and restaurants that align with their values and social media presence.\nGraduate students, medical residents, and young professionals have limited cooking time but sufficient income to prioritize convenient, nutritious meal options.\nThe concentration of educated consumers makes San Jose an ideal testing ground for innovative food concepts before expanding to other markets.",
      "driveTime": "15 min",
      "bachelors": "270K",
      "advanced": "180K",
      "foodDelivery": "35%",
      "avgSpend": "$25"
    },
    "income": {
      "median": "$109.6K",
      "description": "San Jose's income diversity creates opportunities for food businesses to serve multiple market segments through strategic pricing and menu offerings.\nThe substantial middle-income population balances budget consciousness with willingness to pay for convenience during busy periods and special occasions.\nHigher-income households demonstrate different ordering behaviors, ordering delivery more frequently and spending more per order than average consumers.\nIncome distribution patterns reveal distinct market segments that can be served with different brands, pricing strategies, or menu offerings from the same commercial kitchen.\nProfessional services and established industries create seasonal income fluctuations that smart food entrepreneurs can capitalize on with targeted offerings.\nThe city's cost of living relative to income means residents have discretionary spending power for dining and delivery services.\nEconomic stability and employment growth in key industries support sustained demand for food services and premium dining experiences.",
      "under50k": "38%",
      "over100k": "28%",
      "deliveryFrequency": "2.1x",
      "avgOrderValue": "$38"
    },
    "foodScene": {
      "title": "San Jose's Growing Food Scene",
      "description": "San Jose boasts a vibrant and evolving culinary landscape that reflects both local traditions and innovative dining trends.\nThe city's food scene combines established favorites with emerging concepts, creating opportunities for entrepreneurs to both honor local preferences and introduce new ideas.\nFrom food trucks to fine dining establishments, San Jose offers diverse dining experiences that demonstrate consumer openness to culinary innovation.\nLocal food festivals, farmers markets, and culinary events showcase the community's appreciation for quality ingredients and creative preparation.\nThe city's food critics and social media influencers actively champion new restaurants and concepts, providing valuable marketing opportunities for new businesses.\nEstablished food culture creates a knowledgeable customer base that appreciates quality while remaining open to new flavors and concepts.\nThe growing food scene attracts food tourists and creates buzz that benefits all local food businesses through increased visibility and foot traffic."
    },
    "businessOpportunity": {
      "title": "Why Start a Food Business in San Jose",
      "description": "San Jose presents excellent opportunities for food entrepreneurs due to its diverse population, stable economy, and strong demand for convenient dining options.\nCalifornia's business-friendly environment includes favorable tax policies, streamlined permitting processes, and supportive small business resources.\nThe $15.2B California food service market continues expanding at 18% annually, driven by population growth and changing consumer preferences.\nCommercial kitchen rental costs in San Jose remain competitive compared to major metropolitan areas, allowing entrepreneurs to test concepts with manageable overhead.\nThe city's established delivery infrastructure and tech-savvy population create ideal conditions for ghost kitchen and food delivery concepts.\nAccess to diverse suppliers, skilled culinary professionals, and multicultural ingredients supports authentic cuisine development and menu innovation.\nSuccessful food concepts in San Jose can easily expand regionally or serve as testing grounds for national restaurant chains and food brands.",
      "foodServiceMarket": "$15.2B",
      "deliveryGrowth": "18%",
      "ghostKitchenROI": "32%",
      "startupCost": "$45K"
    }
  }
}