{
  "state": "ny",
  "city": "New York",
  "kitchens": [
    {
      "title": "Essential Kitchen Co",
      "price": null,
      "categoryName": "Shared-use commercial kitchen",
      "address": "149-18 Guy R Brewer Blvd, Jamaica, NY 11434",
      "neighborhood": "Jamaica",
      "street": "149-18 Guy R Brewer Blvd",
      "city": "Jamaica",
      "postalCode": "11434",
      "state": "New York",
      "countryCode": "US",
      "website": "https://www.essentialkitchen.org/",
      "phone": "(646) 818-4301",
      "phoneUnformatted": "+16468184301",
      "claimThisBusiness": false,
      "location": {
        "lat": 40.657755,
        "lng": -73.767845
      },
      "totalScore": 5,
      "permanentlyClosed": false,
      "temporarilyClosed": false,
      "placeId": "ChIJo5Mc4a1nwokR7nRa-E5xqj0",
      "categories": [
        "Shared-use commercial kitchen"
      ],
      "fid": "0x89c267ade11c93a3:0x3daa714ef85a74ee",
      "cid": "4443488566342481134",
      "reviewsCount": 7,
      "imagesCount": 12,
      "imageCategories": [],
      "scrapedAt": "2025-07-15T04:34:43.882Z",
      "googleFoodUrl": null,
      "hotelAds": [],
      "openingHours": [
        {
          "day": "Monday",
          "hours": "Open 24 hours"
        },
        {
          "day": "Tuesday",
          "hours": "Open 24 hours"
        },
        {
          "day": "Wednesday",
          "hours": "Open 24 hours"
        },
        {
          "day": "Thursday",
          "hours": "Open 24 hours"
        },
        {
          "day": "Friday",
          "hours": "Open 24 hours"
        },
        {
          "day": "Saturday",
          "hours": "Open 24 hours"
        },
        {
          "day": "Sunday",
          "hours": "Open 24 hours"
        }
      ],
      "peopleAlsoSearch": [],
      "placesTags": [],
      "reviewsTags": [],
      "gasPrices": [],
      "url": "https://www.google.com/maps/search/?api=1&query=Essential%20Kitchen%20Co&query_place_id=ChIJo5Mc4a1nwokR7nRa-E5xqj0",
      "searchPageUrl": "https://www.google.com/maps/search/shared-use%20commercial%20kitchen/@40.59321488768417,-73.70638644734598,13z?hl=en",
      "searchString": "shared-use commercial kitchen",
      "language": "en",
      "rank": 1,
      "isAdvertisement": false,
      "imageUrl": "https://lh3.googleusercontent.com/p/AF1QipM1Y16xOANQCEEyiyNsl7YnHihGN546Yln5PyhT=w408-h306-k-no",
      "kgmid": "/g/11smdp80ht"
    },
    {
      "title": "e.terra Kitchen",
      "price": null,
      "categoryName": "Shared-use commercial kitchen",
      "address": "2191 3rd Ave 3rd floor, New York, NY 10035",
      "neighborhood": "Manhattan",
      "street": "2191 3rd Ave 3rd floor",
      "city": "New York",
      "postalCode": "10035",
      "state": "New York",
      "countryCode": "US",
      "website": "http://www.eterrakitchen.com/",
      "phone": "(866) 383-7721",
      "phoneUnformatted": "+18663837721",
      "claimThisBusiness": false,
      "location": {
        "lat": 40.8000547,
        "lng": -73.9381979
      },
      "totalScore": 4.9,
      "permanentlyClosed": false,
      "temporarilyClosed": false,
      "placeId": "ChIJq4PC7WL3wokRPfNOaZoE8oI",
      "categories": [
        "Shared-use commercial kitchen"
      ],
      "fid": "0x89c2f762edc283ab:0x82f2049a694ef33d",
      "cid": "9435609230532866877",
      "reviewsCount": 45,
      "imagesCount": 128,
      "imageCategories": [],
      "scrapedAt": "2025-07-15T04:34:43.883Z",
      "googleFoodUrl": null,
      "hotelAds": [],
      "openingHours": [
        {
          "day": "Monday",
          "hours": "Open 24 hours"
        },
        {
          "day": "Tuesday",
          "hours": "Open 24 hours"
        },
        {
          "day": "Wednesday",
          "hours": "Open 24 hours"
        },
        {
          "day": "Thursday",
          "hours": "Open 24 hours"
        },
        {
          "day": "Friday",
          "hours": "Open 24 hours"
        },
        {
          "day": "Saturday",
          "hours": "Open 24 hours"
        },
        {
          "day": "Sunday",
          "hours": "Open 24 hours"
        }
      ],
      "peopleAlsoSearch": [],
      "placesTags": [],
      "reviewsTags": [],
      "additionalInfo": {
        "From the business": [
          {
            "Identifies as women-owned": true
          }
        ],
        "Service options": [
          {
            "Delivery": true
          },
          {
            "Onsite services": true
          }
        ],
        "Accessibility": [
          {
            "Wheelchair accessible entrance": true
          }
        ],
        "Payments": [
          {
            "Debit cards": true
          },
          {
            "Credit cards": true
          }
        ]
      },
      "gasPrices": [],
      "url": "https://www.google.com/maps/search/?api=1&query=e.terra%20Kitchen&query_place_id=ChIJq4PC7WL3wokRPfNOaZoE8oI",
      "searchPageUrl": "https://www.google.com/maps/search/shared-use%20commercial%20kitchen/@40.59321488768417,-73.70638644734598,13z?hl=en",
      "searchString": "shared-use commercial kitchen",
      "language": "en",
      "rank": 2,
      "isAdvertisement": false,
      "imageUrl": "https://lh3.googleusercontent.com/p/AF1QipPv5nEFvslW1V-mr8V7Z7huIc0O3n5HljlIiuxD=w408-h272-k-no",
      "kgmid": "/g/11r9c4cc9f"
    },
    {
      "title": "e.terra Kitchen",
      "price": null,
      "categoryName": "Shared-use commercial kitchen",
      "address": "1580 Park Ave Kitchen 3, New York, NY 10029",
      "neighborhood": "Manhattan",
      "street": "1580 Park Ave Kitchen 3",
      "city": "New York",
      "postalCode": "10029",
      "state": "New York",
      "countryCode": "US",
      "website": "http://eterrakitchen.com/",
      "phone": "(866) 383-7721",
      "phoneUnformatted": "+18663837721",
      "claimThisBusiness": false,
      "location": {
        "lat": 40.7975484,
        "lng": -73.9450395
      },
      "totalScore": 5,
      "permanentlyClosed": false,
      "temporarilyClosed": false,
      "placeId": "ChIJsaeAX4v3wokRQSda1577AVo",
      "categories": [
        "Shared-use commercial kitchen"
      ],
      "fid": "0x89c2f78b5f80a7b1:0x5a01fb9ed75a2741",
      "cid": "6485741598026639169",
      "reviewsCount": 1,
      "imagesCount": 14,
      "imageCategories": [],
      "scrapedAt": "2025-07-15T04:34:43.884Z",
      "googleFoodUrl": null,
      "hotelAds": [],
      "openingHours": [
        {
          "day": "Monday",
          "hours": "Open 24 hours"
        },
        {
          "day": "Tuesday",
          "hours": "Open 24 hours"
        },
        {
          "day": "Wednesday",
          "hours": "Open 24 hours"
        },
        {
          "day": "Thursday",
          "hours": "Open 24 hours"
        },
        {
          "day": "Friday",
          "hours": "Open 24 hours"
        },
        {
          "day": "Saturday",
          "hours": "Open 24 hours"
        },
        {
          "day": "Sunday",
          "hours": "Open 24 hours"
        }
      ],
      "peopleAlsoSearch": [],
      "placesTags": [],
      "reviewsTags": [],
      "additionalInfo": {
        "From the business": [
          {
            "Identifies as women-owned": true
          }
        ],
        "Service options": [
          {
            "Delivery": true
          }
        ]
      },
      "gasPrices": [],
      "url": "https://www.google.com/maps/search/?api=1&query=e.terra%20Kitchen&query_place_id=ChIJsaeAX4v3wokRQSda1577AVo",
      "searchPageUrl": "https://www.google.com/maps/search/shared-use%20commercial%20kitchen/@40.59321488768417,-73.70638644734598,13z?hl=en",
      "searchString": "shared-use commercial kitchen",
      "language": "en",
      "rank": 3,
      "isAdvertisement": false,
      "imageUrl": "https://lh3.googleusercontent.com/p/AF1QipPw2pi8T9CRGDl3DYUw3mSvg_cvRcKSv-34SONN=w408-h306-k-no",
      "kgmid": "/g/11k9_r42nj"
    },
    {
      "title": "Cook Collective Kitchen",
      "price": null,
      "categoryName": "Shared-use commercial kitchen",
      "address": "999 Atlantic Ave, Brooklyn, NY 11238",
      "neighborhood": "Clinton Hill",
      "street": "999 Atlantic Ave",
      "city": "Brooklyn",
      "postalCode": "11238",
      "state": "New York",
      "countryCode": "US",
      "website": "http://cookcollectivekitchen.com/",
      "phone": "(718) 500-0285",
      "phoneUnformatted": "+17185000285",
      "claimThisBusiness": false,
      "location": {
        "lat": 40.6802328,
        "lng": -73.9591725
      },
      "totalScore": 4,
      "permanentlyClosed": false,
      "temporarilyClosed": false,
      "placeId": "ChIJ6ZFM_stbwokRgvMylwu3wfc",
      "categories": [
        "Shared-use commercial kitchen"
      ],
      "fid": "0x89c25bcbfe4c91e9:0xf7c1b70b9732f382",
      "cid": "17852751658282578818",
      "reviewsCount": 3,
      "imagesCount": 1,
      "imageCategories": [],
      "scrapedAt": "2025-07-15T04:34:43.884Z",
      "googleFoodUrl": null,
      "hotelAds": [],
      "openingHours": [
        {
          "day": "Monday",
          "hours": "Open 24 hours"
        },
        {
          "day": "Tuesday",
          "hours": "Open 24 hours"
        },
        {
          "day": "Wednesday",
          "hours": "Open 24 hours"
        },
        {
          "day": "Thursday",
          "hours": "Open 24 hours"
        },
        {
          "day": "Friday",
          "hours": "Open 24 hours"
        },
        {
          "day": "Saturday",
          "hours": "Open 24 hours"
        },
        {
          "day": "Sunday",
          "hours": "Open 24 hours"
        }
      ],
      "peopleAlsoSearch": [],
      "placesTags": [],
      "reviewsTags": [],
      "additionalInfo": {
        "Service options": [
          {
            "Delivery": true
          }
        ]
      },
      "gasPrices": [],
      "url": "https://www.google.com/maps/search/?api=1&query=Cook%20Collective%20Kitchen%20-%20Shared%20Kitchens%20for%20Rent&query_place_id=ChIJ6ZFM_stbwokRgvMylwu3wfc",
      "searchPageUrl": "https://www.google.com/maps/search/shared-use%20commercial%20kitchen/@40.59321488768417,-73.70638644734598,13z?hl=en",
      "searchString": "shared-use commercial kitchen",
      "language": "en",
      "rank": 4,
      "isAdvertisement": false,
      "imageUrl": "https://streetviewpixels-pa.googleapis.com/v1/thumbnail?panoid=Y93PRHnmteJrlPTP9pkAQQ&cb_client=search.gws-prod.gps&w=408&h=240&yaw=342.13275&pitch=0&thumbfov=100",
      "kgmid": "/g/11hz__wv_0"
    },
    {
      "title": "Nimbus Lower East Side",
      "price": null,
      "categoryName": "Shared-use commercial kitchen",
      "address": "196 Stanton St, New York, NY 10002",
      "neighborhood": "Manhattan",
      "street": "196 Stanton St",
      "city": "New York",
      "postalCode": "10002",
      "state": "New York",
      "countryCode": "US",
      "website": "http://www.nimbuskitchen.com/",
      "phone": "(646) 718-3475",
      "phoneUnformatted": "+16467183475",
      "claimThisBusiness": false,
      "location": {
        "lat": 40.7199799,
        "lng": -73.9830948
      },
      "totalScore": 5,
      "permanentlyClosed": false,
      "temporarilyClosed": false,
      "placeId": "ChIJxcVGQnFZwokRasvQe9qJ7hA",
      "categories": [
        "Shared-use commercial kitchen",
        "Event venue",
        "Restaurant"
      ],
      "fid": "0x89c259714246c5c5:0x10ee89da7bd0cb6a",
      "cid": "1220064120537140074",
      "reviewsCount": 36,
      "imagesCount": 34,
      "imageCategories": [],
      "scrapedAt": "2025-07-15T04:34:43.884Z",
      "googleFoodUrl": null,
      "hotelAds": [],
      "openingHours": [
        {
          "day": "Monday",
          "hours": "6 AM to 10 PM"
        },
        {
          "day": "Tuesday",
          "hours": "6 AM to 10 PM"
        },
        {
          "day": "Wednesday",
          "hours": "6 AM to 10 PM"
        },
        {
          "day": "Thursday",
          "hours": "6 AM to 10 PM"
        },
        {
          "day": "Friday",
          "hours": "6 AM to 10 PM"
        },
        {
          "day": "Saturday",
          "hours": "6 AM to 10 PM"
        },
        {
          "day": "Sunday",
          "hours": "6 AM to 10 PM"
        }
      ],
      "peopleAlsoSearch": [],
      "placesTags": [],
      "reviewsTags": [],
      "additionalInfo": {
        "From the business": [
          {
            "Identifies as women-owned": true
          }
        ],
        "Service options": [
          {
            "Delivery": true
          }
        ],
        "Accessibility": [
          {
            "Wheelchair accessible entrance": true
          }
        ],
        "Payments": [
          {
            "Debit cards": true
          },
          {
            "Credit cards": true
          }
        ]
      },
      "gasPrices": [],
      "url": "https://www.google.com/maps/search/?api=1&query=Nimbus%20Lower%20East%20Side&query_place_id=ChIJxcVGQnFZwokRasvQe9qJ7hA",
      "searchPageUrl": "https://www.google.com/maps/search/shared-use%20commercial%20kitchen/@40.59321488768417,-73.70638644734598,13z?hl=en",
      "searchString": "shared-use commercial kitchen",
      "language": "en",
      "rank": 6,
      "isAdvertisement": false,
      "imageUrl": "https://lh3.googleusercontent.com/p/AF1QipMVWW3fU2k-ydMzgJ-S9OP8d1Ua1qk0I_71BMRU=w408-h271-k-no",
      "kgmid": "/g/11jkd4kvxy"
    },
    {
      "title": "Bed-Stuy Kitchen",
      "price": null,
      "categoryName": "Shared-use commercial kitchen",
      "address": "217 Pulaski St, Brooklyn, NY 11206",
      "neighborhood": "Bedford-Stuyvesant",
      "street": "217 Pulaski St",
      "city": "Brooklyn",
      "postalCode": "11206",
      "state": "New York",
      "countryCode": "US",
      "website": "http://www.bedstuykitchen.com/formmap",
      "phone": "(347) 915-0439",
      "phoneUnformatted": "+13479150439",
      "claimThisBusiness": true,
      "location": {
        "lat": 40.6932382,
        "lng": -73.9426345
      },
      "totalScore": 5,
      "permanentlyClosed": false,
      "temporarilyClosed": false,
      "placeId": "ChIJtUTYj_NbwokRUGyztRXI3YQ",
      "categories": [
        "Shared-use commercial kitchen"
      ],
      "fid": "0x89c25bf38fd844b5:0x84ddc815b5b36c50",
      "cid": "9574028378427845712",
      "reviewsCount": 1,
      "imagesCount": 1,
      "imageCategories": [],
      "scrapedAt": "2025-07-15T04:34:43.884Z",
      "googleFoodUrl": null,
      "hotelAds": [],
      "openingHours": [],
      "peopleAlsoSearch": [],
      "placesTags": [],
      "reviewsTags": [],
      "gasPrices": [],
      "url": "https://www.google.com/maps/search/?api=1&query=Bed-Stuy%20Kitchen&query_place_id=ChIJtUTYj_NbwokRUGyztRXI3YQ",
      "searchPageUrl": "https://www.google.com/maps/search/shared-use%20commercial%20kitchen/@40.59321488768417,-73.70638644734598,13z?hl=en",
      "searchString": "shared-use commercial kitchen",
      "language": "en",
      "rank": 7,
      "isAdvertisement": false,
      "imageUrl": "https://streetviewpixels-pa.googleapis.com/v1/thumbnail?panoid=U3X6vk3XjjojzAFY42XHdA&cb_client=search.gws-prod.gps&w=408&h=240&yaw=94.9289&pitch=0&thumbfov=100",
      "kgmid": "/g/11d_784vty"
    },
    {
      "title": "Milk Money Kitchens Inc.",
      "price": null,
      "categoryName": "Shared-use commercial kitchen",
      "address": "172 E 106th St, New York, NY 10029",
      "neighborhood": "Manhattan",
      "street": "172 E 106th St",
      "city": "New York",
      "postalCode": "10029",
      "state": "New York",
      "countryCode": "US",
      "website": "https://www.milkmoneykitchens.com/",
      "phone": "(917) 364-7053",
      "phoneUnformatted": "+19173647053",
      "claimThisBusiness": false,
      "location": {
        "lat": 40.7916278,
        "lng": -73.945421
      },
      "totalScore": 5,
      "permanentlyClosed": false,
      "temporarilyClosed": false,
      "placeId": "ChIJo77kZeH3wokRqpZ8NWJNsKw",
      "categories": [
        "Shared-use commercial kitchen"
      ],
      "fid": "0x89c2f7e165e4bea3:0xacb04d62357c96aa",
      "cid": "12443530854624171690",
      "reviewsCount": 1,
      "imagesCount": 24,
      "imageCategories": [],
      "scrapedAt": "2025-07-15T04:34:43.884Z",
      "googleFoodUrl": null,
      "hotelAds": [],
      "openingHours": [],
      "peopleAlsoSearch": [],
      "placesTags": [],
      "reviewsTags": [],
      "additionalInfo": {
        "From the business": [
          {
            "Identifies as Asian-owned": true
          },
          {
            "Identifies as veteran-owned": true
          },
          {
            "Identifies as women-owned": true
          }
        ],
        "Service options": [
          {
            "Delivery": false
          }
        ],
        "Accessibility": [
          {
            "Wheelchair accessible entrance": true
          },
          {
            "Wheelchair accessible restroom": true
          },
          {
            "Wheelchair accessible seating": true
          }
        ],
        "Amenities": [
          {
            "Gender-neutral restroom": true
          }
        ],
        "Crowd": [
          {
            "LGBTQ+ friendly": true
          },
          {
            "Transgender safespace": true
          }
        ],
        "Parking": [
          {
            "Free street parking": true
          },
          {
            "Paid street parking": true
          }
        ]
      },
      "gasPrices": [],
      "url": "https://www.google.com/maps/search/?api=1&query=Milk%20Money%20Kitchens%20Inc.&query_place_id=ChIJo77kZeH3wokRqpZ8NWJNsKw",
      "searchPageUrl": "https://www.google.com/maps/search/shared-use%20commercial%20kitchen/@40.59321488768417,-73.70638644734598,13z?hl=en",
      "searchString": "shared-use commercial kitchen",
      "language": "en",
      "rank": 9,
      "isAdvertisement": false,
      "imageUrl": "https://lh3.googleusercontent.com/p/AF1QipN3MWcVxXZmBL_I0wg_lHoJYzAyZurpyUOWp4TM=w408-h544-k-no",
      "kgmid": "/g/11v_0qq_b1"
    },
    {
      "title": "Nimbus Downtown Brooklyn",
      "price": null,
      "categoryName": "Shared-use commercial kitchen",
      "address": "383 Bridge St, Brooklyn, NY 11201",
      "neighborhood": "Downtown Brooklyn",
      "street": "383 Bridge St",
      "city": "Brooklyn",
      "postalCode": "11201",
      "state": "New York",
      "countryCode": "US",
      "website": "http://www.nimbuskitchen.com/",
      "phone": "(646) 718-3475",
      "phoneUnformatted": "+16467183475",
      "claimThisBusiness": false,
      "location": {
        "lat": 40.6917479,
        "lng": -73.985035
      },
      "totalScore": 4.7,
      "permanentlyClosed": false,
      "temporarilyClosed": false,
      "placeId": "ChIJe9HZ4WNbwokRDPKXARkVjfw",
      "categories": [
        "Shared-use commercial kitchen"
      ],
      "fid": "0x89c25b63e1d9d17b:0xfc8d15190197f20c",
      "cid": "18198224866419143180",
      "reviewsCount": 51,
      "imagesCount": 46,
      "imageCategories": [],
      "scrapedAt": "2025-07-15T04:34:43.885Z",
      "googleFoodUrl": null,
      "hotelAds": [],
      "openingHours": [
        {
          "day": "Monday",
          "hours": "6 AM to 10 PM"
        },
        {
          "day": "Tuesday",
          "hours": "6 AM to 10 PM"
        },
        {
          "day": "Wednesday",
          "hours": "6 AM to 10 PM"
        },
        {
          "day": "Thursday",
          "hours": "6 AM to 10 PM"
        },
        {
          "day": "Friday",
          "hours": "6 AM to 10 PM"
        },
        {
          "day": "Saturday",
          "hours": "6 AM to 10 PM"
        },
        {
          "day": "Sunday",
          "hours": "6 AM to 10 PM"
        }
      ],
      "peopleAlsoSearch": [],
      "placesTags": [],
      "reviewsTags": [],
      "additionalInfo": {
        "Service options": [
          {
            "Delivery": true
          }
        ],
        "Accessibility": [
          {
            "Wheelchair accessible entrance": true
          },
          {
            "Wheelchair accessible parking lot": false
          }
        ],
        "Payments": [
          {
            "Credit cards": true
          }
        ],
        "Parking": [
          {
            "Paid street parking": true
          }
        ]
      },
      "gasPrices": [],
      "url": "https://www.google.com/maps/search/?api=1&query=Nimbus%20Downtown%20Brooklyn&query_place_id=ChIJe9HZ4WNbwokRDPKXARkVjfw",
      "searchPageUrl": "https://www.google.com/maps/search/shared-use%20commercial%20kitchen/@40.59321488768417,-73.70638644734598,13z?hl=en",
      "searchString": "shared-use commercial kitchen",
      "language": "en",
      "rank": 12,
      "isAdvertisement": false,
      "imageUrl": "https://lh3.googleusercontent.com/p/AF1QipOWrsqBzgS6jJ3pdPzDRoYkclyjqofG8a-mVPfj=w408-h272-k-no",
      "kgmid": "/g/11p5ndw3l7"
    },
    {
      "title": "Foodio Space",
      "price": null,
      "categoryName": "Shared-use commercial kitchen",
      "address": "49 Wyckoff Ave, Brooklyn, NY 11237",
      "neighborhood": "Bushwick",
      "street": "49 Wyckoff Ave",
      "city": "Brooklyn",
      "postalCode": "11237",
      "state": "New York",
      "countryCode": "US",
      "website": "https://www.foodio.space/",
      "phone": "(347) 315-0035",
      "phoneUnformatted": "+13473150035",
      "claimThisBusiness": false,
      "location": {
        "lat": 40.706009,
        "lng": -73.9215154
      },
      "permanentlyClosed": false,
      "temporarilyClosed": false,
      "placeId": "ChIJG23dmqNdwokRMe-_LaepPZs",
      "categories": [
        "Shared-use commercial kitchen"
      ],
      "fid": "0x89c25da39add6d1b:0x9b3da9a72dbfef31",
      "cid": "11186283584950366001",
      "reviewsCount": 0,
      "imagesCount": 4,
      "imageCategories": [],
      "scrapedAt": "2025-07-15T04:34:43.885Z",
      "googleFoodUrl": null,
      "hotelAds": [],
      "openingHours": [
        {
          "day": "Monday",
          "hours": "Open 24 hours"
        },
        {
          "day": "Tuesday",
          "hours": "Open 24 hours"
        },
        {
          "day": "Wednesday",
          "hours": "Open 24 hours"
        },
        {
          "day": "Thursday",
          "hours": "Open 24 hours"
        },
        {
          "day": "Friday",
          "hours": "Open 24 hours"
        },
        {
          "day": "Saturday",
          "hours": "Open 24 hours"
        },
        {
          "day": "Sunday",
          "hours": "Open 24 hours"
        }
      ],
      "peopleAlsoSearch": [],
      "placesTags": [],
      "reviewsTags": [],
      "gasPrices": [],
      "url": "https://www.google.com/maps/search/?api=1&query=Foodio%20Space&query_place_id=ChIJG23dmqNdwokRMe-_LaepPZs",
      "searchPageUrl": "https://www.google.com/maps/search/shared-use%20commercial%20kitchen/@40.59321488768417,-73.70638644734598,13z?hl=en",
      "searchString": "shared-use commercial kitchen",
      "language": "en",
      "rank": 13,
      "isAdvertisement": false,
      "imageUrl": "https://lh3.googleusercontent.com/p/AF1QipOlHMXAOPa8jvps4H98iOtq-vyVHLmDzKBV-h83=w408-h306-k-no",
      "kgmid": "/g/11vys0fyng"
    },
    {
      "title": "Cypress Hills Community Kitchen",
      "price": null,
      "categoryName": "Shared-use commercial kitchen",
      "address": "276 Chestnut St, Brooklyn, NY 11208",
      "neighborhood": "Cypress Hills",
      "street": "276 Chestnut St",
      "city": "Brooklyn",
      "postalCode": "11208",
      "state": "New York",
      "countryCode": "US",
      "website": "https://www.cypresshills.org/communitykitchen",
      "phone": "(929) 481-7566",
      "phoneUnformatted": "+19294817566",
      "claimThisBusiness": false,
      "location": {
        "lat": 40.6810858,
        "lng": -73.8751109
      },
      "permanentlyClosed": false,
      "temporarilyClosed": false,
      "placeId": "ChIJfe1mbhVdwokRCMI7ey8n2R0",
      "categories": [
        "Shared-use commercial kitchen"
      ],
      "fid": "0x89c25d156e66ed7d:0x1dd9272f7b3bc208",
      "cid": "2150793381930582536",
      "reviewsCount": 0,
      "imagesCount": 8,
      "imageCategories": [],
      "scrapedAt": "2025-07-15T04:34:43.885Z",
      "googleFoodUrl": null,
      "hotelAds": [],
      "openingHours": [
        {
          "day": "Monday",
          "hours": "9 AM to 9 PM"
        },
        {
          "day": "Tuesday",
          "hours": "9 AM to 9 PM"
        },
        {
          "day": "Wednesday",
          "hours": "9 AM to 9 PM"
        },
        {
          "day": "Thursday",
          "hours": "9 AM to 9 PM"
        },
        {
          "day": "Friday",
          "hours": "9 AM to 9 PM"
        },
        {
          "day": "Saturday",
          "hours": "9 AM to 5 PM"
        },
        {
          "day": "Sunday",
          "hours": "Closed"
        }
      ],
      "peopleAlsoSearch": [],
      "placesTags": [],
      "reviewsTags": [],
      "additionalInfo": {
        "Accessibility": [
          {
            "Wheelchair accessible entrance": true
          }
        ],
        "Amenities": [
          {
            "Gender-neutral restroom": true
          }
        ]
      },
      "gasPrices": [],
      "url": "https://www.google.com/maps/search/?api=1&query=Cypress%20Hills%20Community%20Kitchen&query_place_id=ChIJfe1mbhVdwokRCMI7ey8n2R0",
      "searchPageUrl": "https://www.google.com/maps/search/shared-use%20commercial%20kitchen/@40.59321488768417,-73.70638644734598,13z?hl=en",
      "searchString": "shared-use commercial kitchen",
      "language": "en",
      "rank": 14,
      "isAdvertisement": false,
      "imageUrl": "https://lh3.googleusercontent.com/p/AF1QipPNNaPF09RkccxD9u6pC22mDCoWq-et0eeIghlc=w408-h314-k-no",
      "kgmid": "/g/11vs38vnyx"
    },
    {
      "title": "Bronx CookSpace",
      "price": null,
      "categoryName": "Food machinery supplier",
      "address": "50 E 168th St, Bronx, NY 10452",
      "neighborhood": "Concourse",
      "street": "50 E 168th St",
      "city": "Bronx",
      "postalCode": "10452",
      "state": "New York",
      "countryCode": "US",
      "website": "http://www.bronxcookspace.org/",
      "phone": "(718) 839-1105",
      "phoneUnformatted": "+17188391105",
      "claimThisBusiness": false,
      "location": {
        "lat": 40.8364755,
        "lng": -73.9190552
      },
      "permanentlyClosed": false,
      "temporarilyClosed": false,
      "placeId": "ChIJDwjM5AT1wokRqNzFGXETEew",
      "categories": [
        "Food machinery supplier",
        "Bakery",
        "Catering food and drink supplier",
        "Food manufacturer",
        "Food producer"
      ],
      "fid": "0x89c2f504e4cc080f:0xec11137119c5dca8",
      "cid": "17010398644039703720",
      "reviewsCount": 0,
      "imagesCount": 1,
      "imageCategories": [],
      "scrapedAt": "2025-07-15T04:34:43.914Z",
      "googleFoodUrl": null,
      "hotelAds": [],
      "openingHours": [
        {
          "day": "Monday",
          "hours": "Open 24 hours"
        },
        {
          "day": "Tuesday",
          "hours": "Open 24 hours"
        },
        {
          "day": "Wednesday",
          "hours": "Open 24 hours"
        },
        {
          "day": "Thursday",
          "hours": "Open 24 hours"
        },
        {
          "day": "Friday",
          "hours": "Open 24 hours"
        },
        {
          "day": "Saturday",
          "hours": "Open 24 hours"
        },
        {
          "day": "Sunday",
          "hours": "Open 24 hours"
        }
      ],
      "peopleAlsoSearch": [],
      "placesTags": [],
      "reviewsTags": [],
      "gasPrices": [],
      "url": "https://www.google.com/maps/search/?api=1&query=Bronx%20CookSpace&query_place_id=ChIJDwjM5AT1wokRqNzFGXETEew",
      "searchPageUrl": "https://www.google.com/maps/search/shared-use%20commercial%20kitchen/@40.80099311231582,-73.84296222367298,13z?hl=en",
      "searchString": "shared-use commercial kitchen",
      "language": "en",
      "rank": 9,
      "isAdvertisement": false,
      "imageUrl": "https://streetviewpixels-pa.googleapis.com/v1/thumbnail?panoid=nGayTefZOSNlUHvdKJS-rQ&cb_client=search.gws-prod.gps&w=408&h=240&yaw=200.34909&pitch=0&thumbfov=100",
      "kgmid": "/g/11f7r2_fp2"
    },
    {
      "title": "The Entrepreneur Space",
      "price": null,
      "categoryName": "Business development service",
      "address": "36-46 37th St, Long Island City, NY 11101",
      "neighborhood": "Long Island City",
      "street": "36-46 37th St",
      "city": "Long Island City",
      "postalCode": "11101",
      "state": "New York",
      "countryCode": "US",
      "website": "http://entrepreneurspace.org/",
      "phone": "(718) 392-0025",
      "phoneUnformatted": "+17183920025",
      "claimThisBusiness": false,
      "location": {
        "lat": 40.7532039,
        "lng": -73.9260856
      },
      "totalScore": 4.6,
      "permanentlyClosed": false,
      "temporarilyClosed": false,
      "placeId": "ChIJIzhrPi9fwokRK1cGBwCHuT4",
      "categories": [
        "Business development service",
        "Food and beverage consultant",
        "Office space rental agency"
      ],
      "fid": "0x89c25f2f3e6b3823:0x3eb987000706572b",
      "cid": "4519792135230609195",
      "reviewsCount": 34,
      "imagesCount": 23,
      "imageCategories": [],
      "scrapedAt": "2025-07-15T04:34:43.914Z",
      "googleFoodUrl": null,
      "hotelAds": [],
      "openingHours": [
        {
          "day": "Monday",
          "hours": "8 AM to 5 PM"
        },
        {
          "day": "Tuesday",
          "hours": "8 AM to 5 PM"
        },
        {
          "day": "Wednesday",
          "hours": "8 AM to 5 PM"
        },
        {
          "day": "Thursday",
          "hours": "8 AM to 5 PM"
        },
        {
          "day": "Friday",
          "hours": "8 AM to 5 PM"
        },
        {
          "day": "Saturday",
          "hours": "Closed"
        },
        {
          "day": "Sunday",
          "hours": "Closed"
        }
      ],
      "additionalOpeningHours": {
        "Kitchen": [
          {
            "day": "Monday",
            "hours": "Open 24 hours"
          },
          {
            "day": "Tuesday",
            "hours": "Open 24 hours"
          },
          {
            "day": "Wednesday",
            "hours": "Open 24 hours"
          },
          {
            "day": "Thursday",
            "hours": "Open 24 hours"
          },
          {
            "day": "Friday",
            "hours": "Open 24 hours"
          },
          {
            "day": "Saturday",
            "hours": "Open 24 hours"
          },
          {
            "day": "Sunday",
            "hours": "Open 24 hours"
          }
        ]
      },
      "peopleAlsoSearch": [],
      "placesTags": [],
      "reviewsTags": [],
      "additionalInfo": {
        "Accessibility": [
          {
            "Wheelchair accessible entrance": true
          },
          {
            "Wheelchair accessible parking lot": true
          }
        ]
      },
      "gasPrices": [],
      "url": "https://www.google.com/maps/search/?api=1&query=The%20Entrepreneur%20Space&query_place_id=ChIJIzhrPi9fwokRK1cGBwCHuT4",
      "searchPageUrl": "https://www.google.com/maps/search/shared-use%20commercial%20kitchen/@40.80099311231582,-73.84296222367298,13z?hl=en",
      "searchString": "shared-use commercial kitchen",
      "language": "en",
      "rank": 11,
      "isAdvertisement": false,
      "imageUrl": "https://lh3.googleusercontent.com/gps-cs-s/AC9h4nqUCHpadROCLO_EtUA3bNYDBD-HZ3e6AHyx56GlCBbiruMnZQDgo2qBc5DiPINy-jXZsp5M63Esz1Qq9urqxqceSs-qaS5eKcH7-ms2r5bCJdQRfP-YvKEqFgYrvJ7iPzuw_Cvcsw=w408-h270-k-no",
      "kgmid": "/g/1w4vkvqy"
    },
    {
      "title": "Even Tinier Drumsticks, Inc.",
      "price": null,
      "categoryName": "Shared-use commercial kitchen",
      "address": "41-28 37th St, Long Island City, NY 11101",
      "neighborhood": "Long Island City",
      "street": "41-28 37th St",
      "city": "Long Island City",
      "postalCode": "11101",
      "state": "New York",
      "countryCode": "US",
      "website": "https://www.tinydrumsticks.com/",
      "phone": "(917) 526-3263",
      "phoneUnformatted": "+19175263263",
      "claimThisBusiness": false,
      "location": {
        "lat": 40.7466079,
        "lng": -73.9277457
      },
      "totalScore": 4.9,
      "permanentlyClosed": false,
      "temporarilyClosed": false,
      "placeId": "ChIJZXeBJkNfwokRT0SDdpuvdV4",
      "categories": [
        "Shared-use commercial kitchen"
      ],
      "fid": "0x89c25f4326817765:0x5e75af9b7683444f",
      "cid": "6806539494083478607",
      "reviewsCount": 8,
      "imagesCount": 1,
      "imageCategories": [],
      "scrapedAt": "2025-07-15T04:34:43.914Z",
      "googleFoodUrl": null,
      "hotelAds": [],
      "openingHours": [
        {
          "day": "Monday",
          "hours": "9 AM to 5 PM"
        },
        {
          "day": "Tuesday",
          "hours": "9 AM to 5 PM"
        },
        {
          "day": "Wednesday",
          "hours": "9 AM to 5 PM"
        },
        {
          "day": "Thursday",
          "hours": "9 AM to 5 PM"
        },
        {
          "day": "Friday",
          "hours": "9 AM to 5 PM"
        },
        {
          "day": "Saturday",
          "hours": "Closed"
        },
        {
          "day": "Sunday",
          "hours": "Closed"
        }
      ],
      "peopleAlsoSearch": [],
      "placesTags": [],
      "reviewsTags": [],
      "additionalInfo": {
        "From the business": [
          {
            "Identifies as women-owned": true
          }
        ],
        "Payments": [
          {
            "Debit cards": true
          },
          {
            "Credit cards": true
          }
        ]
      },
      "gasPrices": [],
      "url": "https://www.google.com/maps/search/?api=1&query=Even%20Tinier%20Drumsticks%2C%20Inc.&query_place_id=ChIJZXeBJkNfwokRT0SDdpuvdV4",
      "searchPageUrl": "https://www.google.com/maps/search/shared-use%20commercial%20kitchen/@40.80099311231582,-73.84296222367298,13z?hl=en",
      "searchString": "shared-use commercial kitchen",
      "language": "en",
      "rank": 14,
      "isAdvertisement": false,
      "imageUrl": "https://streetviewpixels-pa.googleapis.com/v1/thumbnail?panoid=ENLaxhSRsjRhQDAwf-A9WA&cb_client=search.gws-prod.gps&w=408&h=240&yaw=268.93576&pitch=0&thumbfov=100",
      "kgmid": "/g/11j1sql0vb"
    },
    {
      "title": "Nimbus SoHo",
      "price": null,
      "categoryName": "Shared-use commercial kitchen",
      "address": "30 Vandam St, New York, NY 10013",
      "neighborhood": "Manhattan",
      "street": "30 Vandam St",
      "city": "New York",
      "postalCode": "10013",
      "state": "New York",
      "countryCode": "US",
      "website": "https://nimbuskitchen.com/",
      "phone": "(646) 718-3475",
      "phoneUnformatted": "+16467183475",
      "claimThisBusiness": false,
      "location": {
        "lat": 40.7261367,
        "lng": -74.0049941
      },
      "totalScore": 5,
      "permanentlyClosed": false,
      "temporarilyClosed": false,
      "placeId": "ChIJ3_sGXJVZwokRMfeh_gTok9E",
      "categories": [
        "Shared-use commercial kitchen"
      ],
      "fid": "0x89c259955c06fbdf:0xd193e804fea1f731",
      "cid": "15101669083652945713",
      "reviewsCount": 5,
      "imagesCount": 10,
      "imageCategories": [],
      "scrapedAt": "2025-07-15T04:34:43.914Z",
      "googleFoodUrl": null,
      "hotelAds": [],
      "openingHours": [
        {
          "day": "Monday",
          "hours": "6 AM to 10 PM"
        },
        {
          "day": "Tuesday",
          "hours": "6 AM to 10 PM"
        },
        {
          "day": "Wednesday",
          "hours": "6 AM to 10 PM"
        },
        {
          "day": "Thursday",
          "hours": "6 AM to 10 PM"
        },
        {
          "day": "Friday",
          "hours": "6 AM to 10 PM"
        },
        {
          "day": "Saturday",
          "hours": "6 AM to 10 PM"
        },
        {
          "day": "Sunday",
          "hours": "6 AM to 10 PM"
        }
      ],
      "peopleAlsoSearch": [],
      "placesTags": [],
      "reviewsTags": [],
      "additionalInfo": {
        "Accessibility": [
          {
            "Wheelchair accessible entrance": true
          }
        ],
        "Payments": [
          {
            "Credit cards": true
          }
        ]
      },
      "gasPrices": [],
      "url": "https://www.google.com/maps/search/?api=1&query=Nimbus%20SoHo&query_place_id=ChIJ3_sGXJVZwokRMfeh_gTok9E",
      "searchPageUrl": "https://www.google.com/maps/search/shared-use%20commercial%20kitchen/@40.80099311231582,-73.84296222367298,13z?hl=en",
      "searchString": "shared-use commercial kitchen",
      "language": "en",
      "rank": 17,
      "isAdvertisement": false,
      "imageUrl": "https://lh3.googleusercontent.com/p/AF1QipPDjxBzYWM5J02zX7JnOJrf9pyYbFEIyM7Njgvx=w408-h272-k-no",
      "kgmid": "/g/11l2cd27v9"
    },
    {
      "title": "Nimbus Midtown",
      "price": null,
      "categoryName": "Shared-use commercial kitchen",
      "address": "307 W 38th St, New York, NY 10018",
      "neighborhood": "Manhattan",
      "street": "307 W 38th St",
      "city": "New York",
      "postalCode": "10018",
      "state": "New York",
      "countryCode": "US",
      "website": "https://nimbuskitchen.com/",
      "phone": "(646) 718-3475",
      "phoneUnformatted": "+16467183475",
      "claimThisBusiness": false,
      "location": {
        "lat": 40.7551445,
        "lng": -73.9923253
      },
      "totalScore": 5,
      "permanentlyClosed": false,
      "temporarilyClosed": false,
      "placeId": "ChIJwZN_s0BZwokRQjWqS11LlZA",
      "categories": [
        "Shared-use commercial kitchen"
      ],
      "fid": "0x89c25940b37f93c1:0x90954b5d4baa3542",
      "cid": "10418316177064998210",
      "reviewsCount": 9,
      "imagesCount": 8,
      "imageCategories": [],
      "scrapedAt": "2025-07-15T04:34:43.914Z",
      "googleFoodUrl": null,
      "hotelAds": [],
      "openingHours": [
        {
          "day": "Monday",
          "hours": "6 AM to 10 PM"
        },
        {
          "day": "Tuesday",
          "hours": "6 AM to 10 PM"
        },
        {
          "day": "Wednesday",
          "hours": "6 AM to 10 PM"
        },
        {
          "day": "Thursday",
          "hours": "6 AM to 10 PM"
        },
        {
          "day": "Friday",
          "hours": "6 AM to 10 PM"
        },
        {
          "day": "Saturday",
          "hours": "6 AM to 10 PM"
        },
        {
          "day": "Sunday",
          "hours": "6 AM to 10 PM"
        }
      ],
      "peopleAlsoSearch": [],
      "placesTags": [],
      "reviewsTags": [],
      "additionalInfo": {
        "Accessibility": [
          {
            "Wheelchair accessible entrance": true
          }
        ],
        "Payments": [
          {
            "Credit cards": true
          }
        ]
      },
      "gasPrices": [],
      "url": "https://www.google.com/maps/search/?api=1&query=Nimbus%20Midtown&query_place_id=ChIJwZN_s0BZwokRQjWqS11LlZA",
      "searchPageUrl": "https://www.google.com/maps/search/shared-use%20commercial%20kitchen/@40.80099311231582,-73.84296222367298,13z?hl=en",
      "searchString": "shared-use commercial kitchen",
      "language": "en",
      "rank": 19,
      "isAdvertisement": false,
      "imageUrl": "https://lh3.googleusercontent.com/p/AF1QipNyW5Wigwv-3CXsJ9wrvT7xzQ669D23oi_f4hLI=w408-h272-k-no",
      "kgmid": "/g/11vb7vzk40"
    },
    {
      "title": "NY Commercial Kitchen",
      "price": null,
      "categoryName": "School",
      "address": "85-27 91st St, Woodhaven, NY 11421",
      "neighborhood": "Woodhaven",
      "street": "85-27 91st St",
      "city": "Woodhaven",
      "postalCode": "11421",
      "state": "New York",
      "countryCode": "US",
      "website": "http://nyccommercialkitchen.com/",
      "phone": "(212) 470-2207",
      "phoneUnformatted": "+12124702207",
      "claimThisBusiness": true,
      "location": {
        "lat": 40.6957872,
        "lng": -73.8542655
      },
      "permanentlyClosed": false,
      "temporarilyClosed": false,
      "placeId": "ChIJi-xF9aJdwokR64R1ba4iBhk",
      "categories": [
        "School"
      ],
      "fid": "0x89c25da2f545ec8b:0x190622ae6d7584eb",
      "cid": "1803166833364534507",
      "reviewsCount": 0,
      "imagesCount": 1,
      "imageCategories": [],
      "scrapedAt": "2025-07-15T04:34:43.914Z",
      "googleFoodUrl": null,
      "hotelAds": [],
      "openingHours": [],
      "peopleAlsoSearch": [],
      "placesTags": [],
      "reviewsTags": [],
      "additionalInfo": {
        "Accessibility": [
          {
            "Wheelchair accessible entrance": true
          }
        ]
      },
      "gasPrices": [],
      "url": "https://www.google.com/maps/search/?api=1&query=NY%20Commercial%20Kitchen&query_place_id=ChIJi-xF9aJdwokR64R1ba4iBhk",
      "searchPageUrl": "https://www.google.com/maps/search/shared-use%20commercial%20kitchen/@40.80099311231582,-73.84296222367298,13z?hl=en",
      "searchString": "shared-use commercial kitchen",
      "language": "en",
      "rank": 20,
      "isAdvertisement": false,
      "imageUrl": "https://streetviewpixels-pa.googleapis.com/v1/thumbnail?panoid=vlZ7eEBm2LuslMO5jl0caw&cb_client=search.gws-prod.gps&w=408&h=240&yaw=84.47841&pitch=0&thumbfov=100",
      "kgmid": "/g/11g2whvzkj"
    },
    {
      "title": "Mi Kitchen es su Kitchen",
      "price": null,
      "categoryName": "Educational consultant",
      "address": "370 E 76th St, New York, NY 10021",
      "neighborhood": "Manhattan",
      "street": "370 E 76th St",
      "city": "New York",
      "postalCode": "10021",
      "state": "New York",
      "countryCode": "US",
      "website": "http://www.mikitchenessukitchen.com/",
      "phone": "(212) 452-1866",
      "phoneUnformatted": "+12124521866",
      "claimThisBusiness": false,
      "location": {
        "lat": 40.7704513,
        "lng": -73.9548752
      },
      "totalScore": 3,
      "permanentlyClosed": false,
      "temporarilyClosed": false,
      "placeId": "ChIJB9Xjo8BYwokRFx0z_0atgEs",
      "categories": [
        "Educational consultant",
        "Kitchen remodeler"
      ],
      "fid": "0x89c258c0a3e3d507:0x4b80ad46ff331d17",
      "cid": "5440538870304414999",
      "reviewsCount": 1,
      "imagesCount": 1,
      "imageCategories": [],
      "scrapedAt": "2025-07-15T04:34:46.461Z",
      "googleFoodUrl": null,
      "hotelAds": [],
      "openingHours": [
        {
          "day": "Monday",
          "hours": "Closed"
        },
        {
          "day": "Tuesday",
          "hours": "9 AM to 5 PM"
        },
        {
          "day": "Wednesday",
          "hours": "9 AM to 5 PM"
        },
        {
          "day": "Thursday",
          "hours": "9 AM to 5 PM"
        },
        {
          "day": "Friday",
          "hours": "Closed"
        },
        {
          "day": "Saturday",
          "hours": "Closed"
        },
        {
          "day": "Sunday",
          "hours": "Closed"
        }
      ],
      "peopleAlsoSearch": [],
      "placesTags": [],
      "reviewsTags": [],
      "additionalInfo": {
        "From the business": [
          {
            "Identifies as women-owned": true
          }
        ],
        "Service options": [
          {
            "Online classes": true
          },
          {
            "Onsite services": true
          }
        ]
      },
      "gasPrices": [],
      "url": "https://www.google.com/maps/search/?api=1&query=Mi%20Kitchen%20es%20su%20Kitchen&query_place_id=ChIJB9Xjo8BYwokRFx0z_0atgEs",
      "searchPageUrl": "https://www.google.com/maps/search/shared-use%20commercial%20kitchen/@40.80099311231582,-73.97953799999999,13z?hl=en",
      "searchString": "shared-use commercial kitchen",
      "language": "en",
      "rank": 15,
      "isAdvertisement": false,
      "imageUrl": "https://streetviewpixels-pa.googleapis.com/v1/thumbnail?panoid=jbck82mO0doBqepw3U0H3Q&cb_client=search.gws-prod.gps&w=408&h=240&yaw=237.68188&pitch=0&thumbfov=100",
      "kgmid": "/g/11bwl3tr_0"
    },
    {
      "title": "Portable Provisions",
      "price": null,
      "categoryName": "Caterer",
      "address": "220 E 81st St, New York, NY 10028",
      "neighborhood": "Manhattan",
      "street": "220 E 81st St",
      "city": "New York",
      "postalCode": "10028",
      "state": "New York",
      "countryCode": "US",
      "website": "http://www.portableprovisions.com/",
      "phone": "(646) 494-3104",
      "phoneUnformatted": "+16464943104",
      "claimThisBusiness": false,
      "location": {
        "lat": 40.7750669,
        "lng": -73.9554603
      },
      "totalScore": 4.8,
      "permanentlyClosed": false,
      "temporarilyClosed": false,
      "placeId": "ChIJb683jrhZwokRGABUsK69kqs",
      "categories": [
        "Caterer",
        "Event venue",
        "Restaurant",
        "Shared-use commercial kitchen"
      ],
      "fid": "0x89c259b88e37af6f:0xab92bdaeb0540018",
      "cid": "12363152485065687064",
      "reviewsCount": 23,
      "imagesCount": 20,
      "imageCategories": [],
      "scrapedAt": "2025-07-15T04:34:46.461Z",
      "googleFoodUrl": null,
      "hotelAds": [],
      "openingHours": [
        {
          "day": "Monday",
          "hours": "9 AM to 12 AM"
        },
        {
          "day": "Tuesday",
          "hours": "9 AM to 12 AM"
        },
        {
          "day": "Wednesday",
          "hours": "9 AM to 12 AM"
        },
        {
          "day": "Thursday",
          "hours": "9 AM to 12 AM"
        },
        {
          "day": "Friday",
          "hours": "9 AM to 12 AM"
        },
        {
          "day": "Saturday",
          "hours": "9 AM to 12 AM"
        },
        {
          "day": "Sunday",
          "hours": "9 AM to 12 AM"
        }
      ],
      "peopleAlsoSearch": [],
      "placesTags": [],
      "reviewsTags": [],
      "additionalInfo": {
        "From the business": [
          {
            "Identifies as women-owned": true
          }
        ],
        "Service options": [
          {
            "No-contact delivery": true
          },
          {
            "Delivery": true
          },
          {
            "Takeout": true
          }
        ],
        "Accessibility": [
          {
            "Wheelchair accessible entrance": true
          }
        ],
        "Payments": [
          {
            "Credit cards": true
          },
          {
            "Debit cards": true
          },
          {
            "NFC mobile payments": true
          },
          {
            "Credit cards": true
          }
        ]
      },
      "gasPrices": [],
      "url": "https://www.google.com/maps/search/?api=1&query=Portable%20Provisions&query_place_id=ChIJb683jrhZwokRGABUsK69kqs",
      "searchPageUrl": "https://www.google.com/maps/search/shared-use%20commercial%20kitchen/@40.80099311231582,-73.97953799999999,13z?hl=en",
      "searchString": "shared-use commercial kitchen",
      "language": "en",
      "rank": 17,
      "isAdvertisement": false,
      "imageUrl": "https://lh3.googleusercontent.com/p/AF1QipNUmbLJZddf9DHK0RDX-NtMEmj_DfOS4sbnEPtZ=w408-h478-k-no",
      "kgmid": "/g/11qmbf3r1v"
    },
    {
      "title": "Coney Island Kitchens",
      "price": null,
      "categoryName": "Shared-use commercial kitchen",
      "address": "2334 Coney Island Ave, Brooklyn, NY 11223, United States",
      "neighborhood": "Sheepshead Bay",
      "street": "2334 Coney Island Ave",
      "city": "Brooklyn",
      "postalCode": "11223",
      "state": "New York",
      "countryCode": "US",
      "claimThisBusiness": true,
      "location": {
        "lat": 40.600026,
        "lng": -73.9616751
      },
      "permanentlyClosed": false,
      "temporarilyClosed": false,
      "placeId": "ChIJI35BQABFwokRRbtf250GVMI",
      "categories": [
        "Shared-use commercial kitchen"
      ],
      "fid": "0x89c2450040417e23:0xc254069ddb5fbb45",
      "cid": "14002824416461830981",
      "reviewsCount": 0,
      "imagesCount": 1,
      "imageCategories": [],
      "scrapedAt": "2025-07-15T04:34:48.955Z",
      "googleFoodUrl": null,
      "hotelAds": [],
      "openingHours": [],
      "peopleAlsoSearch": [],
      "placesTags": [],
      "reviewsTags": [],
      "gasPrices": [],
      "url": "https://www.google.com/maps/search/?api=1&query=Coney%20Island%20Kitchens&query_place_id=ChIJI35BQABFwokRRbtf250GVMI",
      "searchPageUrl": "https://www.google.com/maps/search/shared-use%20commercial%20kitchen/@40.48932577536834,-73.84296222367298,13z?hl=en",
      "searchString": "shared-use commercial kitchen",
      "language": "en",
      "rank": 15,
      "isAdvertisement": false,
      "imageUrl": "https://streetviewpixels-pa.googleapis.com/v1/thumbnail?panoid=mHbULRyfXg3hCi0H3AQsBg&cb_client=search.gws-prod.gps&w=408&h=240&yaw=265.8118&pitch=0&thumbfov=100",
      "kgmid": "/g/11md1cw2hb"
    },
    {
      "title": "IMPERIO UNIDO TOWNECRAFT HOMEWARES DISTRIBUIDORES INDEPENDIENTES",
      "price": null,
      "categoryName": "Shared-use commercial kitchen",
      "address": "1765 Westchester Ave, Bronx, NY 10472",
      "neighborhood": "East Bronx",
      "street": "1765 Westchester Ave",
      "city": "Bronx",
      "postalCode": "10472",
      "state": "New York",
      "countryCode": "US",
      "phone": "(203) 907-7772",
      "phoneUnformatted": "+12039077772",
      "claimThisBusiness": false,
      "location": {
        "lat": 40.8317093,
        "lng": -73.8679716
      },
      "totalScore": 5,
      "permanentlyClosed": false,
      "temporarilyClosed": false,
      "placeId": "ChIJfxViSMr1wokRCvhTRLcoHB8",
      "categories": [
        "Shared-use commercial kitchen"
      ],
      "fid": "0x89c2f5ca4862157f:0x1f1c28b74453f80a",
      "cid": "2241711482114144266",
      "reviewsCount": 1,
      "imagesCount": 73,
      "imageCategories": [],
      "scrapedAt": "2025-07-15T04:35:31.243Z",
      "googleFoodUrl": null,
      "hotelAds": [],
      "openingHours": [
        {
          "day": "Monday",
          "hours": "7 AM to 10 PM"
        },
        {
          "day": "Tuesday",
          "hours": "7 AM to 10 PM"
        },
        {
          "day": "Wednesday",
          "hours": "7 AM to 10 PM"
        },
        {
          "day": "Thursday",
          "hours": "7 AM to 10 PM"
        },
        {
          "day": "Friday",
          "hours": "7 AM to 10 PM"
        },
        {
          "day": "Saturday",
          "hours": "7 AM to 10 PM"
        },
        {
          "day": "Sunday",
          "hours": "Closed"
        }
      ],
      "peopleAlsoSearch": [],
      "placesTags": [],
      "reviewsTags": [],
      "gasPrices": [],
      "url": "https://www.google.com/maps/search/?api=1&query=IMPERIO%20UNIDO%20TOWNECRAFT%20HOMEWARES%20DISTRIBUIDORES%20INDEPENDIENTES&query_place_id=ChIJfxViSMr1wokRCvhTRLcoHB8",
      "searchPageUrl": "https://www.google.com/maps/search/shared-use%20commercial%20kitchen/@40.8364755,-73.9190552,13.600265612482508z?hl=en",
      "searchString": "shared-use commercial kitchen",
      "language": "en",
      "rank": 20,
      "isAdvertisement": false,
      "imageUrl": "https://lh3.googleusercontent.com/p/AF1QipPdqFHuYBcybu8n9teMmdHrFQ__NvIeG11pBwg_=w408-h544-k-no",
      "kgmid": "/g/11ksbcxpn1"
    },
    {
      "title": "Sistaz Cakes",
      "price": null,
      "categoryName": "Shared-use commercial kitchen",
      "address": "105 W 125th St, New York, NY 10027",
      "neighborhood": "Manhattan",
      "street": "105 W 125th St",
      "city": "New York",
      "postalCode": "10027",
      "state": "New York",
      "countryCode": "US",
      "website": "http://sistazcakes.com/",
      "phone": "(929) 432-8960",
      "phoneUnformatted": "+19294328960",
      "claimThisBusiness": false,
      "location": {
        "lat": 40.8082529,
        "lng": -73.9459433
      },
      "permanentlyClosed": false,
      "temporarilyClosed": false,
      "placeId": "ChIJw7osJ1H3wokR1nUY12FGkas",
      "categories": [
        "Shared-use commercial kitchen"
      ],
      "fid": "0x89c2f751272cbac3:0xab914661d71875d6",
      "cid": "12362739838143198678",
      "reviewsCount": 0,
      "imagesCount": 37,
      "imageCategories": [],
      "scrapedAt": "2025-07-15T04:35:31.870Z",
      "googleFoodUrl": null,
      "hotelAds": [],
      "openingHours": [
        {
          "day": "Monday",
          "hours": "9:30 AM to 8 PM"
        },
        {
          "day": "Tuesday",
          "hours": "9:30 AM to 8 PM"
        },
        {
          "day": "Wednesday",
          "hours": "9:30 AM to 8 PM"
        },
        {
          "day": "Thursday",
          "hours": "9:30 AM to 8 PM"
        },
        {
          "day": "Friday",
          "hours": "9:30 AM to 8 PM"
        },
        {
          "day": "Saturday",
          "hours": "10:30 AM to 7:30 PM"
        },
        {
          "day": "Sunday",
          "hours": "Closed"
        }
      ],
      "peopleAlsoSearch": [],
      "placesTags": [],
      "reviewsTags": [],
      "gasPrices": [],
      "url": "https://www.google.com/maps/search/?api=1&query=Sistaz%20Cakes&query_place_id=ChIJw7osJ1H3wokR1nUY12FGkas",
      "searchPageUrl": "https://www.google.com/maps/search/shared-use%20commercial%20kitchen/@40.8364755,-73.9190552,13.600265612482508z?hl=en",
      "searchString": "shared-use commercial kitchen",
      "language": "en",
      "rank": 23,
      "isAdvertisement": false,
      "imageUrl": "https://lh3.googleusercontent.com/p/AF1QipMguxFQILm_6cMSvYJHuIe931cdJAv7LYZlomaA=w408-h426-k-no",
      "kgmid": "/g/11v_4f67p_"
    },
    {
      "title": "Shared Online Kitchens, Inc.",
      "price": null,
      "categoryName": "Real estate agency",
      "address": "205 E 42nd St, New York, NY 10017, United States",
      "neighborhood": "Manhattan",
      "street": "205 E 42nd St",
      "city": "New York",
      "postalCode": "10017",
      "state": "New York",
      "countryCode": "US",
      "website": "http://sharedcloudkitchens.com/",
      "claimThisBusiness": true,
      "location": {
        "lat": 40.7507849,
        "lng": -73.9736235
      },
      "permanentlyClosed": false,
      "temporarilyClosed": false,
      "placeId": "ChIJK_wIBQNZwokRp8hplnKCUAk",
      "categories": [
        "Real estate agency"
      ],
      "fid": "0x89c259030508fc2b:0x95082729669c8a7",
      "cid": "671179773139601575",
      "reviewsCount": 0,
      "imagesCount": 1,
      "imageCategories": [],
      "scrapedAt": "2025-07-15T04:35:37.968Z",
      "googleFoodUrl": null,
      "hotelAds": [],
      "openingHours": [],
      "peopleAlsoSearch": [],
      "placesTags": [],
      "reviewsTags": [],
      "gasPrices": [],
      "url": "https://www.google.com/maps/search/?api=1&query=Shared%20Online%20Kitchens%2C%20Inc.&query_place_id=ChIJK_wIBQNZwokRp8hplnKCUAk",
      "searchPageUrl": "https://www.google.com/maps/search/shared-use%20commercial%20kitchen/@40.7532039,-73.9260856,13.602075158588038z?hl=en",
      "searchString": "shared-use commercial kitchen",
      "language": "en",
      "rank": 27,
      "isAdvertisement": false,
      "imageUrl": "https://streetviewpixels-pa.googleapis.com/v1/thumbnail?panoid=DFTdfOtrx-MebYOw1z9XXQ&cb_client=search.gws-prod.gps&w=408&h=240&yaw=27.94691&pitch=0&thumbfov=100",
      "kgmid": "/g/11n1083ywv"
    },
    {
      "title": "S & P Restaurant Supplies",
      "price": null,
      "categoryName": "Restaurant supply store",
      "address": "36-13 Ditmars Blvd, Astoria, NY 11105, United States",
      "neighborhood": "Astoria",
      "street": "36-13 Ditmars Blvd",
      "city": "Astoria",
      "postalCode": "11105",
      "state": "New York",
      "countryCode": "US",
      "phone": "+1 718-440-8198",
      "phoneUnformatted": "+17184408198",
      "claimThisBusiness": false,
      "location": {
        "lat": 40.7742411,
        "lng": -73.9076663
      },
      "totalScore": 5,
      "permanentlyClosed": false,
      "temporarilyClosed": false,
      "placeId": "ChIJZScjg_FfwokRpYgGTLJuE40",
      "categories": [
        "Restaurant supply store"
      ],
      "fid": "0x89c25ff183232765:0x8d136eb24c0688a5",
      "cid": "10165590495964072101",
      "reviewsCount": 134,
      "reviewsDistribution": {
        "oneStar": 0,
        "twoStar": 0,
        "threeStar": 0,
        "fourStar": 1,
        "fiveStar": 133
      },
      "imagesCount": 100,
      "imageCategories": [],
      "scrapedAt": "2025-07-15T04:35:37.968Z",
      "googleFoodUrl": null,
      "hotelAds": [],
      "openingHours": [
        {
          "day": "Monday",
          "hours": "9 AM to 7 PM"
        },
        {
          "day": "Tuesday",
          "hours": "9 AM to 7 PM"
        },
        {
          "day": "Wednesday",
          "hours": "9 AM to 7 PM"
        },
        {
          "day": "Thursday",
          "hours": "9 AM to 7 PM"
        },
        {
          "day": "Friday",
          "hours": "9 AM to 7 PM"
        },
        {
          "day": "Saturday",
          "hours": "9 AM to 6 PM"
        },
        {
          "day": "Sunday",
          "hours": "Closed"
        }
      ],
      "peopleAlsoSearch": [],
      "placesTags": [],
      "reviewsTags": [],
      "additionalInfo": {
        "From the business": [
          {
            "Small Business": true
          }
        ],
        "Service options": [
          {
            "Delivery": true
          },
          {
            "In-store shopping": true
          }
        ],
        "Planning": [
          {
            "Quick visit": true
          }
        ],
        "Payments": [
          {
            "Credit cards": true
          }
        ],
        "Parking": [
          {
            "Paid street parking": true
          }
        ]
      },
      "gasPrices": [],
      "url": "https://www.google.com/maps/search/?api=1&query=S%20%26%20P%20Restaurant%20Supplies&query_place_id=ChIJZScjg_FfwokRpYgGTLJuE40",
      "searchPageUrl": "https://www.google.com/maps/search/shared-use%20commercial%20kitchen/@40.7532039,-73.9260856,13.602075158588038z?hl=en",
      "searchString": "shared-use commercial kitchen",
      "language": "en",
      "rank": 28,
      "isAdvertisement": false,
      "imageUrl": "https://lh3.googleusercontent.com/p/AF1QipMUeByUqMHb3Sb0GKJJ4zQNdAq3L7ylyhiz0vb6=w426-h240-k-no",
      "kgmid": "/g/11s99v_k92"
    },
    {
      "title": "Kommissary",
      "price": null,
      "categoryName": "Shared-use commercial kitchen",
      "address": "36-31 33rd St, Long Island City, NY 11106, United States",
      "neighborhood": "Long Island City",
      "street": "36-31 33rd St",
      "city": "Long Island City",
      "postalCode": "11106",
      "state": "New York",
      "countryCode": "US",
      "claimThisBusiness": true,
      "location": {
        "lat": 40.7547312,
        "lng": -73.9287274
      },
      "permanentlyClosed": false,
      "temporarilyClosed": false,
      "placeId": "ChIJwauSLwBfwokRnaPiQOH3wlk",
      "categories": [
        "Shared-use commercial kitchen"
      ],
      "fid": "0x89c25f002f92abc1:0x59c2f7e140e2a39d",
      "cid": "6468004561685750685",
      "reviewsCount": 0,
      "imagesCount": 1,
      "imageCategories": [],
      "scrapedAt": "2025-07-15T04:35:37.968Z",
      "googleFoodUrl": null,
      "hotelAds": [],
      "openingHours": [],
      "peopleAlsoSearch": [],
      "placesTags": [],
      "reviewsTags": [],
      "gasPrices": [],
      "url": "https://www.google.com/maps/search/?api=1&query=Kommissary&query_place_id=ChIJwauSLwBfwokRnaPiQOH3wlk",
      "searchPageUrl": "https://www.google.com/maps/search/shared-use%20commercial%20kitchen/@40.7532039,-73.9260856,13.602075158588038z?hl=en",
      "searchString": "shared-use commercial kitchen",
      "language": "en",
      "rank": 31,
      "isAdvertisement": false,
      "imageUrl": "https://streetviewpixels-pa.googleapis.com/v1/thumbnail?panoid=U1dt7NBVSNKAHNbyNtlF9g&cb_client=search.gws-prod.gps&w=408&h=240&yaw=90.84522&pitch=0&thumbfov=100",
      "kgmid": "/g/11y7d2c5c9"
    },
    {
      "title": "Ahimsa Express",
      "price": "€€",
      "categoryName": "Shared-use commercial kitchen",
      "address": "204 E 38th St, New York, NY 10016, United States",
      "neighborhood": "Manhattan",
      "street": "204 E 38th St",
      "city": "New York",
      "postalCode": "10016",
      "state": "New York",
      "countryCode": "US",
      "website": "http://www.ahimsaexpress.com/",
      "phone": "+1 646-300-9080",
      "phoneUnformatted": "+16463009080",
      "claimThisBusiness": false,
      "location": {
        "lat": 40.7478055,
        "lng": -73.9759295
      },
      "totalScore": 3.5,
      "permanentlyClosed": false,
      "temporarilyClosed": false,
      "placeId": "ChIJFTKcwp9fwokRjz4JSvkY8F8",
      "categories": [
        "Shared-use commercial kitchen",
        "Indian takeaway"
      ],
      "fid": "0x89c25f9fc29c3215:0x5ff018f94a093e8f",
      "cid": "6913052886981754511",
      "reviewsCount": 8,
      "reviewsDistribution": {
        "oneStar": 2,
        "twoStar": 1,
        "threeStar": 0,
        "fourStar": 1,
        "fiveStar": 4
      },
      "imagesCount": 27,
      "imageCategories": [],
      "scrapedAt": "2025-07-15T04:35:37.968Z",
      "googleFoodUrl": null,
      "hotelAds": [],
      "openingHours": [
        {
          "day": "Monday",
          "hours": "11 AM to 9:30 PM"
        },
        {
          "day": "Tuesday",
          "hours": "11 AM to 9:30 PM"
        },
        {
          "day": "Wednesday",
          "hours": "11 AM to 9:30 PM"
        },
        {
          "day": "Thursday",
          "hours": "11 AM to 9:30 PM"
        },
        {
          "day": "Friday",
          "hours": "11 AM to 9:30 PM"
        },
        {
          "day": "Saturday",
          "hours": "11 AM to 9:30 PM"
        },
        {
          "day": "Sunday",
          "hours": "11 AM to 9:30 PM"
        }
      ],
      "additionalOpeningHours": {
        "Delivery": [
          {
            "day": "Monday",
            "hours": "11 am–9:30 pm"
          },
          {
            "day": "Tuesday",
            "hours": "11 am–9:30 pm"
          },
          {
            "day": "Wednesday",
            "hours": "11 am–9:30 pm"
          },
          {
            "day": "Thursday",
            "hours": "11 am–9:30 pm"
          },
          {
            "day": "Friday",
            "hours": "11 am–9:30 pm"
          },
          {
            "day": "Saturday",
            "hours": "11 am–9:30 pm"
          },
          {
            "day": "Sunday",
            "hours": "11 am–9:30 pm"
          }
        ],
        "Takeout": [
          {
            "day": "Monday",
            "hours": "11 am–9:30 pm"
          },
          {
            "day": "Tuesday",
            "hours": "11 am–9:30 pm"
          },
          {
            "day": "Wednesday",
            "hours": "11 am–9:30 pm"
          },
          {
            "day": "Thursday",
            "hours": "11 am–9:30 pm"
          },
          {
            "day": "Friday",
            "hours": "11 am–9:30 pm"
          },
          {
            "day": "Saturday",
            "hours": "11 am–9:30 pm"
          },
          {
            "day": "Sunday",
            "hours": "11 am–9:30 pm"
          }
        ],
        "Pickup": [
          {
            "day": "Monday",
            "hours": "11 am–9:30 pm"
          },
          {
            "day": "Tuesday",
            "hours": "11 am–9:30 pm"
          },
          {
            "day": "Wednesday",
            "hours": "11 am–9:30 pm"
          },
          {
            "day": "Thursday",
            "hours": "11 am–9:30 pm"
          },
          {
            "day": "Friday",
            "hours": "11 am–9:30 pm"
          },
          {
            "day": "Saturday",
            "hours": "11 am–9:30 pm"
          },
          {
            "day": "Sunday",
            "hours": "10 am–9:30 pm"
          }
        ],
        "Access": [
          {
            "day": "Monday",
            "hours": "11 am–9:30 pm"
          },
          {
            "day": "Tuesday",
            "hours": "11 am–9:30 pm"
          },
          {
            "day": "Wednesday",
            "hours": "11 am–9:30 pm"
          },
          {
            "day": "Thursday",
            "hours": "11 am–9:30 pm"
          },
          {
            "day": "Friday",
            "hours": "11 am–9:30 pm"
          },
          {
            "day": "Saturday",
            "hours": "11 am–9:30 pm"
          },
          {
            "day": "Sunday",
            "hours": "11 am–9:30 pm"
          }
        ],
        "Kitchen": [
          {
            "day": "Monday",
            "hours": "11 am–9:30 pm"
          },
          {
            "day": "Tuesday",
            "hours": "11 am–9:30 pm"
          },
          {
            "day": "Wednesday",
            "hours": "11 am–9:30 pm"
          },
          {
            "day": "Thursday",
            "hours": "11 am–9:30 pm"
          },
          {
            "day": "Friday",
            "hours": "11 am–9:30 pm"
          },
          {
            "day": "Saturday",
            "hours": "11 am–9:30 pm"
          },
          {
            "day": "Sunday",
            "hours": "11 am–9:30 pm"
          }
        ]
      },
      "peopleAlsoSearch": [],
      "placesTags": [],
      "reviewsTags": [],
      "additionalInfo": {
        "From the business": [
          {
            "Identifies as Asian-owned": true
          }
        ],
        "Service options": [
          {
            "Delivery": true
          }
        ],
        "Accessibility": [
          {
            "Wheelchair-accessible entrance": true
          },
          {
            "Assistive hearing loop": false
          },
          {
            "Wheelchair-accessible car park": false
          },
          {
            "Wheelchair-accessible seating": false
          },
          {
            "Wheelchair-accessible toilet": false
          }
        ],
        "Amenities": [
          {
            "Gender-neutral toilets": true
          }
        ],
        "Payments": [
          {
            "Credit cards": true
          },
          {
            "Debit cards": true
          },
          {
            "Credit cards": true
          }
        ],
        "Parking": [
          {
            "Paid multi-storey car park": true
          },
          {
            "Paid parking lot": true
          },
          {
            "Paid street parking": true
          }
        ]
      },
      "gasPrices": [],
      "url": "https://www.google.com/maps/search/?api=1&query=Ahimsa%20Express&query_place_id=ChIJFTKcwp9fwokRjz4JSvkY8F8",
      "searchPageUrl": "https://www.google.com/maps/search/shared-use%20commercial%20kitchen/@40.7532039,-73.9260856,13.602075158588038z?hl=en",
      "searchString": "shared-use commercial kitchen",
      "language": "en",
      "rank": 32,
      "isAdvertisement": false,
      "imageUrl": "https://lh3.googleusercontent.com/gps-cs-s/AC9h4nrOQtTMFNZCFgycLCj-UtfhhOr8cXmZlER6QISBIFcbxNpBCRUAfxkkAb-D3G6ge3rTDyEJeCj0LGzipmC_JMAQKASuWknuzl0PUYpdMwr-ADMMhxdy7S9UZGT_Pj2PIRPLcrglLA0MAC_W=w408-h306-k-no",
      "kgmid": "/g/11y1f8skp4"
    },
    {
      "title": "Direct Kitchen Equipment",
      "price": null,
      "categoryName": "Restaurant supply store",
      "address": "1100 Coney Island Ave, Brooklyn, NY 11230",
      "neighborhood": "Midwood",
      "street": "1100 Coney Island Ave",
      "city": "Brooklyn",
      "postalCode": "11230",
      "state": "New York",
      "countryCode": "US",
      "website": "https://directkitchenequip.com/",
      "phone": "(347) 587-7488",
      "phoneUnformatted": "+13475877488",
      "claimThisBusiness": false,
      "location": {
        "lat": 40.630773,
        "lng": -73.966537
      },
      "totalScore": 4.9,
      "permanentlyClosed": false,
      "temporarilyClosed": false,
      "placeId": "ChIJSV45acxEwokRSanl1oLYU0Q",
      "categories": [
        "Restaurant supply store",
        "Bakery equipment",
        "Bar restaurant furniture store",
        "Commercial refrigerator supplier",
        "Equipment supplier",
        "Gyro restaurant",
        "Kitchen supply store"
      ],
      "fid": "0x89c244cc69395e49:0x4453d882d6e5a949",
      "cid": "4923516874108807497",
      "reviewsCount": 93,
      "imagesCount": 71,
      "imageCategories": [],
      "scrapedAt": "2025-07-15T04:35:39.254Z",
      "googleFoodUrl": null,
      "hotelAds": [],
      "openingHours": [
        {
          "day": "Monday",
          "hours": "9:30 AM to 5:30 PM"
        },
        {
          "day": "Tuesday",
          "hours": "9:30 AM to 5:30 PM"
        },
        {
          "day": "Wednesday",
          "hours": "9:30 AM to 5:30 PM"
        },
        {
          "day": "Thursday",
          "hours": "9:30 AM to 5:30 PM"
        },
        {
          "day": "Friday",
          "hours": "9:30 AM to 4 PM"
        },
        {
          "day": "Saturday",
          "hours": "Closed"
        },
        {
          "day": "Sunday",
          "hours": "Closed"
        }
      ],
      "peopleAlsoSearch": [],
      "placesTags": [],
      "reviewsTags": [],
      "additionalInfo": {
        "From the business": [
          {
            "Small business": true
          }
        ],
        "Service options": [
          {
            "Delivery": true
          },
          {
            "In-store pickup": true
          },
          {
            "In-store shopping": true
          }
        ],
        "Accessibility": [
          {
            "Wheelchair accessible entrance": true
          }
        ],
        "Planning": [
          {
            "Quick visit": true
          }
        ],
        "Payments": [
          {
            "Checks": true
          },
          {
            "Credit cards": true
          },
          {
            "Debit cards": true
          },
          {
            "Credit cards": true
          }
        ]
      },
      "gasPrices": [],
      "url": "https://www.google.com/maps/search/?api=1&query=Direct%20Kitchen%20Equipment&query_place_id=ChIJSV45acxEwokRSanl1oLYU0Q",
      "searchPageUrl": "https://www.google.com/maps/search/shared-use%20commercial%20kitchen/@40.6957872,-73.8542655,13.603319766946175z?hl=en",
      "searchString": "shared-use commercial kitchen",
      "language": "en",
      "rank": 20,
      "isAdvertisement": false,
      "imageUrl": "https://lh3.googleusercontent.com/p/AF1QipOXq_5vLlPaWYfDlrRG0sw00n_K0JRQBcj5BAMK=w493-h240-k-no",
      "kgmid": "/g/11dztwsw2d"
    },
    {
      "title": "Prep Kitchen LLC",
      "price": null,
      "categoryName": "Food",
      "address": "18 Extra Pl, New York, NY 10003",
      "neighborhood": "Manhattan",
      "street": "18 Extra Pl",
      "city": "New York",
      "postalCode": "10003",
      "state": "New York",
      "countryCode": "US",
      "phone": "(212) 529-2500",
      "phoneUnformatted": "+12125292500",
      "claimThisBusiness": true,
      "location": {
        "lat": 40.7244522,
        "lng": -73.9917735
      },
      "totalScore": 4.2,
      "permanentlyClosed": false,
      "temporarilyClosed": false,
      "placeId": "ChIJ0zr6-YRZwokRWdnvdsSwOw4",
      "categories": [
        "Food",
        "Food and drink"
      ],
      "fid": "0x89c25984f9fa3ad3:0xe3bb0c476efd959",
      "cid": "1025607698012428633",
      "reviewsCount": 5,
      "imagesCount": 1,
      "imageCategories": [],
      "scrapedAt": "2025-07-15T04:35:45.538Z",
      "googleFoodUrl": null,
      "hotelAds": [],
      "openingHours": [
        {
          "day": "Monday",
          "hours": "8 AM to 5:30 PM"
        },
        {
          "day": "Tuesday",
          "hours": "8 AM to 5:30 PM"
        },
        {
          "day": "Wednesday",
          "hours": "8 AM to 5:30 PM"
        },
        {
          "day": "Thursday",
          "hours": "8 AM to 5:30 PM"
        },
        {
          "day": "Friday",
          "hours": "8 AM to 5:30 PM"
        },
        {
          "day": "Saturday",
          "hours": "Closed"
        },
        {
          "day": "Sunday",
          "hours": "Closed"
        }
      ],
      "peopleAlsoSearch": [],
      "placesTags": [],
      "reviewsTags": [],
      "additionalInfo": {
        "Accessibility": [
          {
            "Wheelchair accessible parking lot": false
          }
        ]
      },
      "gasPrices": [],
      "url": "https://www.google.com/maps/search/?api=1&query=Prep%20Kitchen%20LLC&query_place_id=ChIJ0zr6-YRZwokRWdnvdsSwOw4",
      "searchPageUrl": "https://www.google.com/maps/search/shared-use%20commercial%20kitchen/@40.7365403,-73.9866874,13.602436631383853z?hl=en",
      "searchString": "shared-use commercial kitchen",
      "language": "en",
      "rank": 12,
      "isAdvertisement": false,
      "imageUrl": "https://streetviewpixels-pa.googleapis.com/v1/thumbnail?panoid=jLz8Ffy2kEsFZ3eahih8GQ&cb_client=search.gws-prod.gps&w=408&h=240&yaw=256.5895&pitch=0&thumbfov=100",
      "kgmid": "/g/1tfscs08"
    },
    {
      "title": "S T Management Commissary",
      "price": null,
      "categoryName": "Business management consultant",
      "address": "350 W 38th St, New York, NY 10018",
      "neighborhood": "Manhattan",
      "street": "350 W 38th St",
      "city": "New York",
      "postalCode": "10018",
      "state": "New York",
      "countryCode": "US",
      "phone": "(212) 290-8189",
      "phoneUnformatted": "+12122908189",
      "claimThisBusiness": true,
      "location": {
        "lat": 40.7554724,
        "lng": -73.9940048
      },
      "permanentlyClosed": false,
      "temporarilyClosed": false,
      "placeId": "ChIJi1EEQ61ZwokRAO_uyuAGrAE",
      "categories": [
        "Business management consultant"
      ],
      "fid": "0x89c259ad4304518b:0x1ac06e0caeeef00",
      "cid": "120478852579258112",
      "reviewsCount": 0,
      "imagesCount": 1,
      "imageCategories": [],
      "scrapedAt": "2025-07-15T04:36:03.035Z",
      "googleFoodUrl": null,
      "hotelAds": [],
      "openingHours": [],
      "peopleAlsoSearch": [],
      "placesTags": [],
      "reviewsTags": [],
      "additionalInfo": {
        "Accessibility": [
          {
            "Wheelchair accessible entrance": true
          }
        ]
      },
      "gasPrices": [],
      "url": "https://www.google.com/maps/search/?api=1&query=S%20T%20Management%20Commissary&query_place_id=ChIJi1EEQ61ZwokRAO_uyuAGrAE",
      "searchPageUrl": "https://www.google.com/maps/search/shared-use%20commercial%20kitchen/@40.7492952,-73.9747765,14.602159966598496z?hl=en",
      "searchString": "shared-use commercial kitchen",
      "language": "en",
      "rank": 20,
      "isAdvertisement": false,
      "imageUrl": "https://streetviewpixels-pa.googleapis.com/v1/thumbnail?panoid=YNjGV7Ikh9p82X4k_zeXeA&cb_client=search.gws-prod.gps&w=408&h=240&yaw=224.1557&pitch=0&thumbfov=100",
      "kgmid": "/g/1tj92ggj"
    },
    {
      "title": "My Commercial Kitchen",
      "price": null,
      "categoryName": "Restaurant supply store",
      "address": "102-17 Northern Blvd, Corona, NY 11368",
      "neighborhood": "Corona",
      "street": "102-17 Northern Blvd",
      "city": "Corona",
      "postalCode": "11368",
      "state": "New York",
      "countryCode": "US",
      "website": "http://mycommercialkitchennyc.com/",
      "phone": "(718) 416-6777",
      "phoneUnformatted": "+17184166777",
      "claimThisBusiness": false,
      "location": {
        "lat": 40.7578556,
        "lng": -73.8659094
      },
      "totalScore": 5,
      "permanentlyClosed": false,
      "temporarilyClosed": false,
      "placeId": "ChIJF-WneXxfwokRI_8HfY0ikec",
      "categories": [
        "Restaurant supply store"
      ],
      "fid": "0x89c25f7c79a7e517:0xe791228d7d07ff23",
      "cid": "16686156085467807523",
      "reviewsCount": 13,
      "imagesCount": 7,
      "imageCategories": [],
      "scrapedAt": "2025-07-15T04:36:08.214Z",
      "googleFoodUrl": null,
      "hotelAds": [],
      "openingHours": [
        {
          "day": "Monday",
          "hours": "9 AM to 5 PM"
        },
        {
          "day": "Tuesday",
          "hours": "9 AM to 5 PM"
        },
        {
          "day": "Wednesday",
          "hours": "9 AM to 5 PM"
        },
        {
          "day": "Thursday",
          "hours": "9 AM to 5 PM"
        },
        {
          "day": "Friday",
          "hours": "9 AM to 5 PM"
        },
        {
          "day": "Saturday",
          "hours": "9 AM to 1 PM"
        },
        {
          "day": "Sunday",
          "hours": "Closed"
        }
      ],
      "peopleAlsoSearch": [],
      "placesTags": [],
      "reviewsTags": [],
      "additionalInfo": {
        "From the business": [
          {
            "Small business": true
          }
        ],
        "Service options": [
          {
            "Delivery": true
          },
          {
            "In-store pickup": true
          }
        ],
        "Payments": [
          {
            "Checks": true
          },
          {
            "Credit cards": true
          },
          {
            "Debit cards": true
          },
          {
            "NFC mobile payments": true
          },
          {
            "Credit cards": true
          }
        ]
      },
      "gasPrices": [],
      "url": "https://www.google.com/maps/search/?api=1&query=My%20Commercial%20Kitchen&query_place_id=ChIJF-WneXxfwokRI_8HfY0ikec",
      "searchPageUrl": "https://www.google.com/maps/search/shared-use%20commercial%20kitchen/@40.7742411,-73.9076663,14.601618508380398z?hl=en",
      "searchString": "shared-use commercial kitchen",
      "language": "en",
      "rank": 18,
      "isAdvertisement": false,
      "imageUrl": "https://lh3.googleusercontent.com/p/AF1QipOQEmn_spk0mC1D6TRq11ya2M29xDWBQGUkv6dw=w427-h240-k-no",
      "kgmid": "/g/11pzk45v1l"
    },
    {
      "title": "Flatbush Central Caribbean Marketplace x Mangrove FC",
      "price": null,
      "categoryName": "Restaurant",
      "address": "2123 Caton Ave, Brooklyn, NY 11226",
      "neighborhood": "Little Caribbean",
      "street": "2123 Caton Ave",
      "city": "Brooklyn",
      "postalCode": "11226",
      "state": "New York",
      "countryCode": "US",
      "website": "http://www.flatbushcentral.com/",
      "phone": "(917) 765-9005",
      "phoneUnformatted": "+19177659005",
      "claimThisBusiness": false,
      "location": {
        "lat": 40.6529867,
        "lng": -73.959495
      },
      "totalScore": 4.3,
      "permanentlyClosed": false,
      "temporarilyClosed": false,
      "placeId": "ChIJD2YDVBVbwokRpGj9JFIVm1k",
      "categories": [
        "Restaurant",
        "Clothing store",
        "Community center",
        "Cultural landmark",
        "Design institute",
        "Food court",
        "Learning center",
        "Market",
        "Shared-use commercial kitchen"
      ],
      "fid": "0x89c25b155403660f:0x599b155224fd68a4",
      "cid": "6456777933317826724",
      "reviewsCount": 95,
      "reviewsDistribution": {
        "oneStar": 5,
        "twoStar": 3,
        "threeStar": 9,
        "fourStar": 23,
        "fiveStar": 55
      },
      "imagesCount": 271,
      "imageCategories": [],
      "scrapedAt": "2025-07-15T04:36:25.232Z",
      "googleFoodUrl": null,
      "hotelAds": [],
      "openingHours": [
        {
          "day": "Monday",
          "hours": "Closed"
        },
        {
          "day": "Tuesday",
          "hours": "11 AM to 8 PM"
        },
        {
          "day": "Wednesday",
          "hours": "11 AM to 8 PM"
        },
        {
          "day": "Thursday",
          "hours": "11 AM to 8 PM"
        },
        {
          "day": "Friday",
          "hours": "11 AM to 9 PM"
        },
        {
          "day": "Saturday",
          "hours": "11 AM to 9 PM"
        },
        {
          "day": "Sunday",
          "hours": "12 to 7 PM"
        }
      ],
      "additionalOpeningHours": {
        "Breakfast": [
          {
            "day": "Monday",
            "hours": "Closed"
          },
          {
            "day": "Tuesday",
            "hours": "Closed"
          },
          {
            "day": "Wednesday",
            "hours": "Closed"
          },
          {
            "day": "Thursday",
            "hours": "Closed"
          },
          {
            "day": "Friday",
            "hours": "Closed"
          },
          {
            "day": "Saturday",
            "hours": "11 AM–3 PM"
          },
          {
            "day": "Sunday",
            "hours": "Closed"
          }
        ]
      },
      "peopleAlsoSearch": [],
      "placesTags": [],
      "reviewsTags": [],
      "additionalInfo": {
        "From the business": [
          {
            "Identifies as Black-owned": true
          }
        ],
        "Service options": [
          {
            "In-store shopping": true
          },
          {
            "Onsite services": true
          }
        ],
        "Accessibility": [
          {
            "Wheelchair accessible entrance": true
          },
          {
            "Wheelchair accessible restroom": true
          },
          {
            "Wheelchair accessible seating": true
          }
        ],
        "Amenities": [
          {
            "Restroom": true
          }
        ],
        "Payments": [
          {
            "Credit cards": true
          },
          {
            "NFC mobile payments": true
          }
        ]
      },
      "gasPrices": [],
      "url": "https://www.google.com/maps/search/?api=1&query=Flatbush%20Central%20Caribbean%20Marketplace%20x%20Mangrove%20FC&query_place_id=ChIJD2YDVBVbwokRpGj9JFIVm1k",
      "searchPageUrl": "https://www.google.com/maps/search/shared-use%20commercial%20kitchen/@40.6449847,-73.9299486,13.60441889914174z?hl=en",
      "searchString": "shared-use commercial kitchen",
      "language": "en",
      "rank": 23,
      "isAdvertisement": false,
      "imageUrl": "https://lh3.googleusercontent.com/gps-cs-s/AC9h4nrDFHev43wx75l68kR_SD3fy3Qo088IU-3U0nTv63iyxVn2pPcMQyhH3gsBpRlVLmG0e-1YSLep2BqEWaf92vDMBq3ngtLlan_Dgq_XR5eda_CYL7QSfob31yDJQDqugY2B8Vt3-A=w426-h240-k-no",
      "kgmid": "/g/1tj9cxy7"
    }
  ],
  "insights": {
    "residents": {
      "count": "8.2M",
      "description": "New York's diverse population creates exceptional opportunities for food entrepreneurs serving multicultural communities and busy families.\nThis demographic diversity reflects modern America's changing food preferences, with residents increasingly seeking authentic cuisines and convenient meal solutions.\nResearch shows that 60% of New York consumers order takeout or delivery at least once a week, driven by busy lifestyles and dual-income households.\nThe city's residential patterns create distinct neighborhoods where food delivery thrives, especially during evening hours when families need convenient dinner solutions.\nYoung professionals and established families both value high-quality, convenient meal options that save time while providing variety and authentic flavors.\nHome ownership rates indicate stable communities with established dining habits and disposable income for food services.\nThe growing preference for delivery over dining out, particularly among suburban families, creates consistent demand for ghost kitchen and meal delivery concepts.",
      "driveTime": "15 min",
      "homeowners": "45%",
      "medianHomeValue": "$185K",
      "diversity": "50+",
      "hispanicPopulation": "25%"
    },
    "workforce": {
      "count": "4.2M",
      "description": "New York's dynamic workforce drives significant demand for convenient, high-quality meal options during busy workdays and corporate meetings.\nThe concentration of professional services, healthcare, and business operations creates a large population of time-conscious workers who value meal delivery services.\nAverage commute times and office-based work schedules create predictable lunch and dinner rush periods that food businesses can optimize around.\nThe rise of remote and hybrid work arrangements has expanded delivery opportunities to residential areas during traditional business hours.\nCorporate culture increasingly includes food benefits and catered meetings, providing opportunities for bulk catering and corporate accounts.\nBusiness lunch meetings remain important for relationship building, creating demand for professional-quality group meal orders and presentation-ready packaging.\nHigher-income professionals represent a premium market segment willing to pay for convenience, quality ingredients, and unique culinary experiences.",
      "driveTime": "15 min",
      "workFromHome": "12%",
      "averageCommute": "25 min",
      "highIncome": "22%",
      "businessLunch": "65%"
    },
    "students": {
      "count": "2.8M",
      "description": "New York's educated population and student community drive innovation in food trends and represent early adopters of new delivery platforms and concepts.\nCollege students and recent graduates combine adventurous food preferences with strong digital engagement habits and regular delivery app usage.\nNYU + Columbia + CUNY system creates a constant influx of young adults who view food delivery as an essential part of their lifestyle rather than a luxury service.\nStudents and young professionals often work irregular hours, creating demand for late-night delivery options and weekend meal services.\nThis educated demographic actively seeks out diverse cuisines, sustainable food options, and restaurants that align with their values and social media presence.\nGraduate students, medical residents, and young professionals have limited cooking time but sufficient income to prioritize convenient, nutritious meal options.\nThe concentration of educated consumers makes New York an ideal testing ground for innovative food concepts before expanding to other markets.",
      "driveTime": "15 min",
      "bachelors": "1.7M",
      "advanced": "1.1M",
      "foodDelivery": "35%",
      "avgSpend": "$25"
    },
    "income": {
      "median": "$70.7K",
      "description": "New York's income diversity creates opportunities for food businesses to serve multiple market segments through strategic pricing and menu offerings.\nThe substantial middle-income population balances budget consciousness with willingness to pay for convenience during busy periods and special occasions.\nHigher-income households demonstrate different ordering behaviors, ordering delivery more frequently and spending more per order than average consumers.\nIncome distribution patterns reveal distinct market segments that can be served with different brands, pricing strategies, or menu offerings from the same commercial kitchen.\nProfessional services and established industries create seasonal income fluctuations that smart food entrepreneurs can capitalize on with targeted offerings.\nThe city's cost of living relative to income means residents have discretionary spending power for dining and delivery services.\nEconomic stability and employment growth in key industries support sustained demand for food services and premium dining experiences.",
      "under50k": "38%",
      "over100k": "28%",
      "deliveryFrequency": "2.1x",
      "avgOrderValue": "$38"
    },
    "foodScene": {
      "title": "New York's Growing Food Scene",
      "description": "New York boasts a vibrant and evolving culinary landscape that reflects both local traditions and innovative dining trends.\nThe city's food scene combines established favorites with emerging concepts, creating opportunities for entrepreneurs to both honor local preferences and introduce new ideas.\nFrom food trucks to fine dining establishments, New York offers diverse dining experiences that demonstrate consumer openness to culinary innovation.\nLocal food festivals, farmers markets, and culinary events showcase the community's appreciation for quality ingredients and creative preparation.\nThe city's food critics and social media influencers actively champion new restaurants and concepts, providing valuable marketing opportunities for new businesses.\nEstablished food culture creates a knowledgeable customer base that appreciates quality while remaining open to new flavors and concepts.\nThe growing food scene attracts food tourists and creates buzz that benefits all local food businesses through increased visibility and foot traffic."
    },
    "businessOpportunity": {
      "title": "Why Start a Food Business in New York",
      "description": "New York presents excellent opportunities for food entrepreneurs due to its diverse population, stable economy, and strong demand for convenient dining options.\nNew York's business-friendly environment includes favorable tax policies, streamlined permitting processes, and supportive small business resources.\nThe $8.9B New York food service market continues expanding at 15% annually, driven by population growth and changing consumer preferences.\nCommercial kitchen rental costs in New York remain competitive compared to major metropolitan areas, allowing entrepreneurs to test concepts with manageable overhead.\nThe city's established delivery infrastructure and tech-savvy population create ideal conditions for ghost kitchen and food delivery concepts.\nAccess to diverse suppliers, skilled culinary professionals, and multicultural ingredients supports authentic cuisine development and menu innovation.\nSuccessful food concepts in New York can easily expand regionally or serve as testing grounds for national restaurant chains and food brands.",
      "foodServiceMarket": "$8.9B",
      "deliveryGrowth": "15%",
      "ghostKitchenROI": "32%",
      "startupCost": "$45K"
    }
  }
}